business_id,name,cuisine,address,latitude,longitude,number_of_reviews,rating,inserted_at_time_stamp
z5hRX3iJ5Ty_S38iG_WY3Q,Tanner Smiths,American,"'204 W 55th St New York, NY 10019'",40.76442,-73.98169,1993,4.5,2023-02-26 00:33:37.126421
zRXMvxUX_rOliKZPpkWi_g,Valerie,American,"'45 W 45th St between 5th & 6th Ave New York, NY 10036'",40.756326,-73.981117,601,4.5,2023-02-26 00:33:37.126448
C-8mGN7lt5rIraO5n-15ug,The Smith,American,"'956 2nd Ave New York, NY 10022'",40.755165,-73.967868,3072,4.0,2023-02-26 00:33:37.126461
MyQV4i518ZO4CLudtR8gLA,The Bar Room,American,"'117 E 60th St New York, NY 10022'",40.763409,-73.968449,595,4.0,2023-02-26 00:33:37.126471
6hKJePanmG9AxK4dfwgyyg,The Horny Ram,American,"'951 2nd Ave New York, NY 10022'",40.75528,-73.96857,695,4.0,2023-02-26 00:33:37.126482
SaYTVG7wHCMDBofHCgXPaA,Dutch Freds,American,"'307 W 47th St New York, NY 10036'",40.760835,-73.987823,1948,4.5,2023-02-26 00:33:37.126492
Rc1lxc5lSKJYd162JHNMfQ,Bea,American,"'403 W 43rd St New York, NY 10036'",40.7591968,-73.9923361,2811,4.0,2023-02-26 00:33:37.126503
mWS4umRg2AyykyAClMrIRw,The Penrose,American,"'1590 2nd Ave New York, NY 10028'",40.775427,-73.953115,1417,4.0,2023-02-26 00:33:37.126513
1LIptXhtDh58vAA-QPFL4w,Cask,American,"'167 E 33rd St New York, NY 10016'",40.745414,-73.979004,1463,4.0,2023-02-26 00:33:37.126523
veku2cg2qaV-7MxwhOMBmg,Judge Roy Bean Public House,American,"'38 W 56th St New York, NY 10019'",40.7629158108786,-73.9761248066812,855,4.5,2023-02-26 00:33:37.126533
tOn-wEQ06ScrgeU5Ljw7Gw,Alfie's,American,"'800 9th Ave New York, NY 10019'",40.765437,-73.987278,639,4.0,2023-02-26 00:33:37.126545
IOHaEgK1zDvUvB3SfKuGCw,Parker & Quinn,American,"'64 W 39th St New York, NY 10018'",40.752586217581296,-73.9850713153442,1593,4.0,2023-02-26 00:33:37.126555
cCesIqo-LQt0cRlZAnrAZQ,Friedman's,American,"'132 W 31st St New York, NY 10001'",40.74839,-73.99062,2816,4.0,2023-02-26 00:33:37.126566
JXcYD52B4190gIh6_RSXCg,Lilly's Craft and Kitchen,American,"'675 9th Ave New York, NY 10036'",40.76138,-73.99071,1375,4.0,2023-02-26 00:33:37.126575
QPEzLkO35OTYijFhs8d7-w,The Reading Room,American,"'16 E 46th St New York, NY 10017'",40.7555,-73.97802,44,5.0,2023-02-26 00:33:37.126585
J5XNBZyUwgNQjllwJZG3Lg,Side Door,American,"'151 E 57th St New York, NY 10022'",40.760863,-73.968251,52,4.0,2023-02-26 00:33:37.126595
f4QBa0khsF9Ut99Tc9IMIA,Haswell Green's,American,"'240 W 52nd St New York, NY 10019'",40.76301,-73.98416,515,4.5,2023-02-26 00:33:37.126605
J3NT61-AH5d5Gu5tFJhYSw,The Cabin NYC,American,"'205 E 4th St New York, NY 10009'",40.72393,-73.98383,529,4.0,2023-02-26 00:33:37.126615
LHxZgTddXIp_S1sL3nNG9w,Park Avenue Tavern,American,"'99 Park Ave New York, NY 10016'",40.75031,-73.9783999,943,4.0,2023-02-26 00:33:37.126625
0Pj35i_hb6eLeJLEvjs9eg,Amy Fontaine's,American,"'922 3rd Ave New York, NY 10022'",40.75937,-73.9684,53,4.0,2023-02-26 00:33:37.126634
BQRfaq0U75B5EEblBZ2Aqg,Bacall's,American,"'220 West 44th St New York, NY 10036'",40.7576,-73.98693,399,4.0,2023-02-26 00:33:37.126644
NaHwHUfdbJeLmQQSSYMTjA,Hendrickson’s,American,"'1122 1st Ave New York, NY 10065'",40.76114,-73.96064,25,4.5,2023-02-26 00:33:37.126654
qCf1QN11Qdncpqb7PhuyVw,The Rag Trader & Bo Peep Cocktail and Highball Store,American,"'70 W 36th St New York, NY 10018'",40.75059,-73.98628,740,4.5,2023-02-26 00:33:37.126664
0yMlU3xbdawYFXmjNc0dhw,The Harrow New York,American,"'720 10th Ave New York, NY 10019'",40.76419,-73.99182,268,4.5,2023-02-26 00:33:37.126675
xMUZfoyzyJoTfZxrEZus4Q,Mom's Kitchen & Bar,American,"'701 9th Ave New York, NY 10019'",40.76247,-73.9901,1616,4.5,2023-02-26 00:33:37.126685
Xu8H24NxJJxEE-9wGp_AMA,The Brazen Tavern,American,"'356 W 44th St New York, NY 10036'",40.7593269348145,-73.9913101196289,424,4.5,2023-02-26 00:33:37.126696
t7xqAMBQNH4ppsPSOMzFyg,Treadwell Park,American,"'1125 1st Ave New York, NY 10065'",40.7614,-73.9609,532,4.0,2023-02-26 00:33:37.126706
NTwOc9yQ1xl5deeVzZqxfw,Tavern29,American,"'47 E 29th St New York, NY 10016'",40.74431,-73.98394,1011,4.0,2023-02-26 00:33:37.126715
Vz_VSDTLuuEfaku4ihKTvA,Little Ways,American,"'343 W Broadway New York, NY 10013'",40.722622,-74.0033741,58,4.0,2023-02-26 00:33:37.126725
y6XohzcYjUAQOD8U3NT_yw,The Stag's Head,American,"'252 E 51st St Ste 1 New York, NY 10022'",40.755592,-73.968588,442,4.0,2023-02-26 00:33:37.126734
hdiuRS9sVZSMReZm4oV5SA,Da Andrea,American,"'35 W 13th St New York, NY 10011'",40.736218,-73.99597,1823,4.5,2023-02-26 00:33:37.126744
X97pE0LRWOng1q66kjAz1g,The Independent,American,"'147 W 40th St New York, NY 10018'",40.754782,-73.987377,195,4.5,2023-02-26 00:33:37.126754
VLGmFHE4s0Sfu0piMVQa1Q,Hold Fast Kitchen & Spirits,American,"'364 W 46th St New York, NY 10036'",40.76064,-73.99023,569,4.5,2023-02-26 00:33:37.126764
xt4sa64WOrpJvZBDPNPNYg,Jacob's Pickles,American,"'509 Amsterdam Ave New York, NY 10024'",40.7866504411994,-73.9755284786224,5194,4.0,2023-02-26 00:33:37.126774
xkvv0n7jbl4Ra3Vm_jfxaA,Upland,American,"'345 Park Ave S New York, NY 10010'",40.7418912,-73.9846396,1184,4.0,2023-02-26 00:33:37.126785
AA9wpuJRhkSHUePAiv3otA,The Leroy House,American,"'430 Hudson St New York, NY 10014'",40.73063,-74.00661,168,4.5,2023-02-26 00:33:37.126794
ssGhu4n3emZ9kEPVf371IQ,Cookshop,American,"'156 10th Ave New York, NY 10011'",40.745731881448236,-74.00540454907613,2284,4.0,2023-02-26 00:33:37.126805
Li52Rr6BM4bGNYdpn7H8_w,Cooper's Craft & Cocktails,American,"'169 8th Ave New York, NY 10011'",40.742702,-74.000778,410,4.0,2023-02-26 00:33:37.126815
PYmjoid5P-Mw8dkkKxZy6w,Harvest Kitchen,American,"'269 Columbus Ave New York, NY 10023'",40.777697,-73.978357,326,4.0,2023-02-26 00:33:37.126825
kkXVwonBLWcIuMVL8qJi5Q,Home Kitchen,American,"'155 E 84th St New York, NY 10028'",40.77805,-73.95598,54,4.5,2023-02-26 00:33:37.126835
U5hCNNyJmb7f3dmC1HTzSQ,Junior's Restaurant,American,"'1515 Broadway New York, NY 10036'",40.75756463099685,-73.98608001118411,5551,4.0,2023-02-26 00:33:37.126845
Ig4LSE3TRPs5nSsfTgnniQ,Carla,American,"'331 W 51st St Ground Fl New York, NY 10019'",40.76357,-73.98691,88,4.5,2023-02-26 00:33:37.126856
vGS5X12NYXCl8NpynlxRuw,Oscar Wilde,American,"'45 W 27th St New York, NY 10001'",40.74514,-73.9900399,1124,4.0,2023-02-26 00:33:37.126866
zX8IF7oCbw1HrNaPmOBy-g,FERNS,American,"'166 1st Ave New York, NY 10009'",40.72881,-73.98403,198,4.5,2023-02-26 00:33:37.126875
h5WkewI6U7NjLB_n6WgdvQ,HandCraft Kitchen & Cocktails,American,"'367 3rd Ave New York, NY 10016'",40.740967,-73.981292,480,4.0,2023-02-26 00:33:37.126885
y64lCrHGTsrRuDmhoUA0nw,Niall's,American,"'218 E 52nd St New York, NY 10022'",40.75653,-73.96909,138,4.0,2023-02-26 00:33:37.126895
ePqKbqXFBCbwBaWiN2Jo9w,Ampersand,American,"'294 3rd Ave New York, NY 10010'",40.7386178790617,-73.9834206895483,254,4.5,2023-02-26 00:33:37.126905
m86CNmYThtzzWB3nPnrhbg,Emily - West Village,American,"'35 Downing St New York, NY 10014'",40.729375015649076,-74.00386306706551,928,4.0,2023-02-26 00:33:37.126916
j3HLOkrjzBjcvYPiIHua1A,Jasper's Taphouse + Kitchen,American,"'761 9th Ave New York, NY 10019'",40.764266,-73.9886122,427,4.0,2023-02-26 00:33:37.126926
VVYea3NzbklOyHEzSEavWw,7th Street Burger,American,"'485 7th Ave New York, NY 10018'",40.75238,-73.98939,13,4.5,2023-02-26 00:33:37.126936
JYNBy2r3LVhJbLHE1bASfg,The Smith,American,"'1900 Broadway New York, NY 10023'",40.7716201269986,-73.9818377981476,2039,4.0,2023-02-26 00:33:38.175847
VVYea3NzbklOyHEzSEavWw,7th Street Burger,American,"'485 7th Ave New York, NY 10018'",40.75238,-73.98939,13,4.5,2023-02-26 00:33:38.175874
54SrQVVhGcvfuIkFabQ8KQ,P.J. Clarke's,American,"'915 Third Ave New York, NY 10022'",40.7589148,-73.9680336,1003,3.5,2023-02-26 00:33:38.175887
mVN2G1c5bRtAsNlr2Tbx6Q,White Oak Tavern,American,"'21 Waverly Pl New York, NY 10003'",40.73036,-73.99462,428,4.0,2023-02-26 00:33:38.175897
BEYmqrP1_TC0nhnTGKkkJg,Ella Social,American,"'249 Columbus Ave New York, NY 10023'",40.7769826,-73.9788067,656,4.0,2023-02-26 00:33:38.175908
Cz6It2NB_QBXCjnlsWGZSA,Boulton & Watt,American,"'5 Ave A New York, NY 10009'",40.722553,-73.986429,716,4.0,2023-02-26 00:33:38.175918
hmG5OnHEe2vQRrQxez0U9w,Worthwild,American,"'156 9th Ave New York, NY 10011'",40.74428,-74.00272,152,4.5,2023-02-26 00:33:38.175928
fgtw4swOHXEFwZpBCG05rQ,Black Iron Burger,American,"'245 W 38th St New York, NY 10018'",40.75427,-73.9903099,1123,4.0,2023-02-26 00:33:38.176035
Xd_l7jtUAZZAAvK8-mI2Jw,The Smith,American,"'1150 Broadway New York, NY 10010'",40.74424,-73.98878,1303,4.0,2023-02-26 00:33:38.176048
eTR6nfHvQzvKX7Dcd6JrfA,District Social,American,"'252 W 37th St New York, NY 10018'",40.7535743713379,-73.9914321899414,725,4.0,2023-02-26 00:33:38.176059
CDywb3LHVYZlQL2-woTiJA,Hole In The Wall,American,"'37 W 24th St New York, NY 10010'",40.74334201163294,-73.99108071293105,288,4.0,2023-02-26 00:33:38.176070
unWoFZeSWa0DK1YMekO_Uw,Trademark Bar + Kitchen,American,"'38 W 36th St New York, NY 10018'",40.7503233942813,-73.9855566306885,714,4.5,2023-02-26 00:33:38.176082
rkTJsacxaZ3pU0g8AJmr0A,The Copper Still Chelsea,American,"'206 7th Ave New York, NY 10011'",40.7433018973893,-73.9962961112732,101,4.0,2023-02-26 00:33:38.176093
Jyf4SNiBoU11dp28cGBoqA,Gatsby's Landing Times Square,American,"'120 West 44th St New York, NY 10036'",40.7565,-73.98427,81,4.5,2023-02-26 00:33:38.176103
7qHgPtEiTyaldNsFyfqSyw,Jack Diamond's,American,"'140 E 27th St New York, NY 10016'",40.74167898864579,-73.9824913,8,4.5,2023-02-26 00:33:38.176114
Lw044EfH1h3XhUhri3ExfA,BLACKBARN,American,"'19 E 26th St New York, NY 10010'",40.7431036278527,-73.9870538457459,680,4.0,2023-02-26 00:33:38.176125
0IwdwNnbro5RLLIlaxyfpQ,The Wilson NYC,American,"'132 W 27th St New York, NY 10001'",40.74587,-73.99265,332,4.0,2023-02-26 00:33:38.176135
uoT2_Wrt1noD6kZOID7tUg,Jane Restaurant,American,"'100 W Houston St New York, NY 10012'",40.7273779,-74.00025,3476,4.0,2023-02-26 00:33:38.176145
b2z0IifTb3zeuEbZ5fx7YQ,Spaghetti Tavern,American,"'425 Amsterdam Ave New York, NY 10024'",40.783999644919156,-73.97748999443762,71,4.5,2023-02-26 00:33:38.176156
bpjDo7svAFD10eszaOPQHw,Clinton Hall- 36th St,American,"'16 W 36th St New York, NY 10018'",40.75009,-73.98471,320,3.5,2023-02-26 00:33:38.176166
oLg2HxLYChgvMRTK5ZSdKQ,Kurant,American,"'1091 2nd Ave New York, NY 10022'",40.75971,-73.96521,243,4.0,2023-02-26 00:33:38.176176
wohLfhl0OqvDzIX50r63aw,Dolly Varden,American,"'302 W 51st St New York, NY 10019'",40.762914,-73.986258,376,4.5,2023-02-26 00:33:38.176186
3axYlGbF2M-rHjz0uhKFcg,Whitmans Hudson Yards,American,"'331 10th Ave New York, NY 10001'",40.75173481553854,-74.00146209413181,285,4.0,2023-02-26 00:33:38.176196
-R5CBTnY10kdVNNv0lbHnA,The Mayfly,American,"'269 E Houston St New York, NY 10002'",40.72152,-73.98462,50,4.5,2023-02-26 00:33:38.176207
CEOm_NF7EeDZR4ozRZvCSg,Bedford Falls,American,"'206 E 67th St New York, NY 10065'",40.7661503,-73.9625243,123,4.0,2023-02-26 00:33:38.176216
I6optu9x0JAf8oT5lqJ8qw,The Blue Dog Cookhouse & Bar,American,"'308 W 50th St New York, NY 10019'",40.76244,-73.98674,1484,4.0,2023-02-26 00:33:38.176226
T-ciFE0hc6O2JDY8Y1cDgg,Foxy Johns Bar & Kitchen,American,"'143 E 47th St New York, NY 10017'",40.75445,-73.97274,331,4.0,2023-02-26 00:33:38.176236
-4PCSqieO2rJ4-htOh8v0w,Lexington Brass,American,"'517 Lexington Ave New York, NY 10017'",40.7552634948238,-73.9729699790478,891,3.5,2023-02-26 00:33:38.176247
_-Gb3IAx74cyka9yTOb_oA,ASSET,American,"'329 Columbus Ave New York, NY 10023'",40.77948,-73.97705,124,4.0,2023-02-26 00:33:38.176257
XsElXaLxUPKquI78poB8yw,Maison Pickle,American,"'2315 Broadway New York, NY 10024'",40.7870473,-73.9781361,1597,4.0,2023-02-26 00:33:38.176266
_LJFf9YqpYxvExTvVxb7Rw,The Modern,American,"'9 W 53rd St New York, NY 10019'",40.761106128269006,-73.97670872686992,1128,4.5,2023-02-26 00:33:38.176277
5mJgmAgKpTbCDdpVs7OFxQ,Ted's Corner Tavern,American,"'523 3rd Ave New York, NY 10016'",40.7462,-73.9774599,232,4.5,2023-02-26 00:33:38.176288
OgM6WwztLVavBQBmb_g5aw,Tara Rose,American,"'384 3rd Ave New York, NY 10016'",40.741803261063986,-73.98122457328056,631,4.5,2023-02-26 00:33:38.176298
i34wlziIjT8lHgUN1o0ToQ,The Shakespeare,American,"'24 E 39th St New York, NY 10016'",40.7506062,-73.9801755,384,4.0,2023-02-26 00:33:38.176308
XLhzRqTsv9vZwNjmwS2e9g,Carnegie Diner,American,"'205 W 57th St New York, NY 10019'",40.766056,-73.980504,348,4.0,2023-02-26 00:33:38.176318
scjoZtbTQHi35xhAlUm2iQ,L'ADRESSE,American,"'1065 Ave Of The Americas New York, NY 10018'",40.753918142987104,-73.98531150211585,786,4.0,2023-02-26 00:33:38.176329
eGfpa9r0aGtN3V8ZwgaOEw,The Supply House,American,"'1647 2nd Ave New York, NY 10028'",40.7775579,-73.9521892,381,4.0,2023-02-26 00:33:38.176339
__EvomQ2tE1NtkWn32WEXg,Au Cheval,American,"'33 Cortlandt Aly New York, NY 10013'",40.7183878,-74.0015522,737,4.5,2023-02-26 00:33:38.176349
veq1Bl1DW3UWMekZJUsG1Q,Gramercy Tavern,American,"'42 E 20th St New York, NY 10003'",40.73844,-73.98825,3283,4.5,2023-02-26 00:33:38.176359
PnGSE8JGbMZKtdHi9go7Kg,The Milling Room,American,"'446 Columbus Ave New York, NY 10024'",40.7835485472543,-73.9744088718635,546,4.0,2023-02-26 00:33:38.176369
oLA02lMIfgvbYquvXzkARw,Lillie's Victorian Establishment,American,"'249 W 49th St New York, NY 10019'",40.7614625,-73.9860519,1577,4.0,2023-02-26 00:33:38.176379
KF4dTBX9ITMTSjwEXxXZ6g,Friedman's,American,"'50 W 72nd St New York, NY 10023'",40.7770249,-73.97845749999999,270,4.0,2023-02-26 00:33:38.176390
GlSWzWVmQsKLGxySYSGRbQ,Smithfield Hall,American,"'138 W 25th St New York, NY 10001'",40.7447532620452,-73.9934939850447,523,4.0,2023-02-26 00:33:38.176400
8XfX9zZrwGDuVBUgP1O52g,7th Street Burger,American,"'485 7th Ave New York, NY 10018'",40.75238,-73.98939,3,4.5,2023-02-26 00:33:38.176410
LJTGRkX5yWoqx1jJ7E4zqw,Haymaker Bar and Kitchen,American,"'252 W 29th St New York, NY 10001'",40.7487508496393,-73.995229748466,381,4.0,2023-02-26 00:33:38.176421
Z65cd3Z7JvwK8TnSVg-cfA,District Tap House,American,"'246 W 38th St New York, NY 10018'",40.75409,-73.99039,869,4.0,2023-02-26 00:33:38.176431
tnxb_qM5e7J5wIfYwJB3Ig,The Elgin,American,"'64 West 48th St New York, NY 10036'",40.758194,-73.980905,260,4.5,2023-02-26 00:33:38.176441
DGhWO1sUWydVeR5j5ZZaMw,La Grande Boucherie,American,"'145 W 53rd St New York, NY 10019'",40.7626274,-73.98084109999999,2064,4.5,2023-02-26 00:33:38.176451
Cq0_y25K4r60gUP0JeHRDQ,The Orchard Townhouse,American,"'242 10th Ave New York, NY 10001'",40.748382,-74.00345305613494,76,4.0,2023-02-26 00:33:38.176462
cSRzfprFfAnT1nAcQMgrDA,Fred's Restaurant,American,"'476 Amsterdam Ave New York, NY 10024'",40.7856233,-73.9767067,884,4.0,2023-02-26 00:33:38.176472
LQHegfNHe7ylY3bocrFlpg,Calle Dao - Bryant Park,American,"'38 W 39th St New York, NY 10018'",40.752167,-73.98422161374535,1866,4.0,2023-02-26 00:33:39.223275
z0lX40tXQxOHlU26VhLATA,American Brass,American,"'2-01 50th Ave City, NY 11101'",40.74408388423463,-73.95843344047545,309,4.5,2023-02-26 00:33:39.223306
txSykTj5nbwmpiVNoK_Dyg,Blue Ribbon Brasserie - SoHo,American,"'97 Sullivan St New York, NY 10012'",40.725456,-74.003027,995,4.5,2023-02-26 00:33:39.223322
UF9F0A4e7AJHzNPG5zrHUQ,The Beast Next Door,American,"'42-51 27th St Long Island City, NY 11101'",40.74881,-73.94073,250,4.5,2023-02-26 00:33:39.223335
uq5rHbGtBFwCwPkokIkKvQ,JoJo,American,"'160 E 64th St New York, NY 10065'",40.76506,-73.96571,231,4.0,2023-02-26 00:33:39.223348
Gc7OVEIs4HodL4hw9U3C3w,Copinette,American,"'891 1st Ave New York, NY 10022'",40.75407,-73.96623,210,4.0,2023-02-26 00:33:39.223359
DW5SL9RM-kJnmRyYo4oEqg,Ruby's - Murray Hill,American,"'442 3rd Ave New York, NY 10016'",40.74364,-73.97985,685,4.0,2023-02-26 00:33:39.223371
MaoCNdHni6MLjM9iYQqHcg,Frida Midtown,American,"'214 E 52nd St New York, NY 10022'",40.756610894855896,-73.96919065816803,118,4.5,2023-02-26 00:33:39.223384
QzKASdqNpVXkVUgb_uX43g,Horn’s Hook Tavern,American,"'1589 First Ave New York, NY 10028'",40.774799,-73.95116,64,4.5,2023-02-26 00:33:39.223397
RfxOtJ4SQmEeVX_XjFLWUQ,Otis,American,"'18 Harrison Pl Brooklyn, NY 11206'",40.706011,-73.932598,486,5.0,2023-02-26 00:33:39.223411
UA2M9QFZghe-9th2KwLoWQ,Burger & Lobster - Flatiron NYC,American,"'39 W 19th St New York, NY 10011'",40.74007,-73.99344,5842,4.0,2023-02-26 00:33:39.223423
n-JSnKZcF1Bs-RPcIlb0qw,Elephant & Castle,American,"'68 Greenwich Ave New York, NY 10011'",40.736214,-74.000729,550,4.0,2023-02-26 00:33:39.223435
Xk3BVvlX-KXh6kJhbClMKw,Fine & Rare,American,"'9 E 37th St New York, NY 10016'",40.7501754760742,-73.9821929931641,490,4.5,2023-02-26 00:33:39.223507
OiSjFh06dsNonI0cPXMSOw,Bondurants,American,"'303 E 85th St New York, NY 10028'",40.777292,-73.951854,490,4.0,2023-02-26 00:33:39.223523
mTnrikKr52osjrp4m6u4Vg,Bloom's Tavern,American,"'208 E 58th St New York, NY 10022'",40.7607477090562,-73.9662868218754,160,4.0,2023-02-26 00:33:39.223536
Orbsfc3nI21mQ8cwSPahhg,The Four Horsemen,American,"'295 Grand St Brooklyn, NY 11211'",40.71305,-73.95732,285,4.5,2023-02-26 00:33:39.223549
1raNn0l3I4H9PcAJce69Sw,Sojourn,American,"'244 E 79th St New York, NY 10075'",40.77343,-73.95568,704,4.0,2023-02-26 00:33:39.223561
8fDAF540cmDeC-nVlJKPwQ,A10 Kitchen,American,"'162 Ave A New York, NY 10009'",40.72807,-73.981875,67,4.5,2023-02-26 00:33:39.223572
sDajjybHSYFw8gTVbknPGA,Jack Doyle's Bar & Restaurant,American,"'240 W 35th St New York, NY 10001'",40.752132,-73.991852,368,4.0,2023-02-26 00:33:39.223584
Ixh8PpRS3D-xpXPqBf8OBA,Chez Nick,American,"'1737 York Ave New York, NY 10128'",40.779014,-73.945238,186,4.5,2023-02-26 00:33:39.223596
zv29TbzPs9-rD5ql0qWw5A,The Shadmoor,American,"'1066 2nd Ave New York, NY 10022'",40.75866,-73.9655499,428,4.0,2023-02-26 00:33:39.223608
26E3j9l0XW_onVIUP-ThCw,Heidi's House By The Side Of The Road,American,"'308 E 78th St New York, NY 10075'",40.772189,-73.955029,652,4.5,2023-02-26 00:33:39.223620
QpkKEFHK5dz8XT-osEXgJw,The Grey Dog,American,"'242 W 16th St New York, NY 10011'",40.740624,-74.000648,1244,4.0,2023-02-26 00:33:39.223633
u-MUL83NUy2gsbV80WZnAA,The Marshal,American,"'628 10th Ave New York, NY 10036'",40.76122,-73.99396,826,4.0,2023-02-26 00:33:39.223644
QR7eMOsOXxGg26xx4wQUOw,BarDough,American,"'350 W 46th St New York, NY 10036'",40.7603523698496,-73.9898819848895,227,4.5,2023-02-26 00:33:39.223657
1s0SM5zh7QEMlqjIM7XYpQ,VERSA,American,"'218 W 35th St Fl 5 New York, NY 10001'",40.75183,-73.99099,243,3.5,2023-02-26 00:33:39.223669
C74MT6T_Ew0fCZjuWU96jQ,The Junction,American,"'329 Lexington Ave New York, NY 10016'",40.74928,-73.97731,205,4.0,2023-02-26 00:33:39.223680
Me4TxTbPPQZQopW1wOGx5g,Jack's Wife Freda,American,"'226 Lafayette St New York, NY 10012'",40.7221323,-73.9975402,2297,4.0,2023-02-26 00:33:39.223692
r-EDS_eO70HUgDmOk5_8Qw,Juniper Bar,American,"'237 W 35th St New York, NY 10001'",40.752344,-73.9914045,646,4.0,2023-02-26 00:33:39.223705
S6YZwgJ8dky34wa-yTX1tA,Emmy Squared Pizza - Midtown West,American,"'200 West 60th St New York, NY 10023'",40.770985811318106,-73.9875843,23,4.0,2023-02-26 00:33:39.223717
RL2MgBZTzP_Cui0VEEyjrQ,Emmy Squared Pizza - Hell's Kitchen,American,"'311 West 48th St New York, NY 10019'",40.7615,-73.98754,25,4.0,2023-02-26 00:33:39.223730
WqmqQ8c9NivfIRn3sO2KiA,The Ribbon,American,"'20 W 72nd St New York, NY 10023'",40.7765426635742,-73.9774627685547,494,3.5,2023-02-26 00:33:39.223743
FON3TceJNsTC0I0mzBwOKg,Fig & Olive,American,"'10 E 52nd St New York, NY 10022'",40.75938,-73.97558,1245,3.5,2023-02-26 00:33:39.223755
3004g82RXwKoqaenSqBVEg,George Keeley,American,"'485 Amsterdam Ave New York, NY 10024'",40.7858376,-73.975986,343,4.0,2023-02-26 00:33:39.223767
rvabT9eHrKFKgfNPrp69Zw,The Waylon,American,"'736 10th Ave New York, NY 10019'",40.7650840967709,-73.9918056894333,135,4.5,2023-02-26 00:33:39.223780
KQwPro9AkaehK5i4DI_g-A,Handcraft Burgers and Brew,American,"'110 W 40th St New York, NY 10018'",40.75382,-73.9859,94,4.5,2023-02-26 00:33:39.223792
CjSLDlOGzyHcJPwYXZQsWw,Clinton Hall- 51st St,American,"'230 E 51st St New York, NY 10022'",40.7558,-73.96905,210,3.5,2023-02-26 00:33:39.223804
lhEzTykkqFz92Vq2uILtyw,The Wren,American,"'344 Bowery New York, NY 10012'",40.7263350655,-73.9920476876,609,4.0,2023-02-26 00:33:39.223817
wV2YuZKjk5VhZz3I27xtsA,Monterey,American,"'37 E 50th St New York, NY 10022'",40.75767029068569,-73.97455063884706,21,4.0,2023-02-26 00:33:39.223830
bkIMbvXOcztDVz8bpyhMzQ,The Dead Poet,American,"'450 Amsterdam Ave New York, NY 10024'",40.78499,-73.97735,471,4.0,2023-02-26 00:33:39.223842
IiIzeFqe4tJiHaAWyw7ddg,West End Bar & Grill,American,"'813 8th Ave New York, NY 10019'",40.7615693,-73.9867747,431,4.0,2023-02-26 00:33:39.223853
jODudB8mE-udjFjloOwBoA,Oti,American,"'15 Essex St New York, NY 10002'",40.7151822,-73.99012040222111,14,4.5,2023-02-26 00:33:39.223866
74FFOreAgPphSwSZlfZzgw,Jones Wood Foundry,American,"'401 E 76th St New York, NY 10021'",40.7703854340118,-73.9535711917713,784,4.0,2023-02-26 00:33:39.223879
5F9kZPnAleDYqCeCyvGJPA,Bad Roman,American,"'10 Columbus Cir New York, NY 10019'",40.768494,-73.983072,12,4.5,2023-02-26 00:33:39.223891
wpT1QU7PSQgQQ1DkzI00JA,Izakaya Toribar,American,"'164 E 56th St New York, NY 10022'",40.759641,-73.9685558,152,4.0,2023-02-26 00:33:39.223905
vgg1dvDP-9tFWSacN4q0nA,Coppelia,American,"'207 W 14th St New York, NY 10011'",40.7389111700125,-73.9999985153443,1501,4.0,2023-02-26 00:33:39.223918
JEuIdK9hzci9g_TuwfnZ_w,Society Cafe,American,"'52 W 13th St New York, NY 10011'",40.73621709073928,-73.99658457729866,232,4.0,2023-02-26 00:33:39.223931
fEig4z0y_qCMRLvW7HRuqA,Harding's,American,"'32 E 21st St New York, NY 10010'",40.7393229,-73.9887163,399,4.0,2023-02-26 00:33:39.223943
9f6chaCx20d1A0Abo6NzUw,Chateau 49 Bar A Vin,American,"'924 2nd Ave New York, NY 10022'",40.75428,-73.9687299,137,4.0,2023-02-26 00:33:39.223955
0Bm2vjJW5Fw7_Maer6kDUw,Melt Shop,American,"'135 W 50th St New York, NY 10019'",40.76091344676272,-73.9825650029376,668,4.0,2023-02-26 00:33:39.223968
6EPqpumUnfG5Gh6bbw5C4w,Olde City Cheesesteaks & Brew - Coming Soon,American,"'576 9th Ave New York, NY 10036'",40.758128,-73.992631,1,5.0,2023-02-26 00:33:40.275874
pfmAcS-g6SiNG0KlLvrqnA,Beauty & Essex,American,"'146 Essex St New York City, NY 10002'",40.720434786101286,-73.98686057623863,3821,4.0,2023-02-26 00:33:40.275906
zUv1BNm_a9-3DkxrCG3tng,Friedmans,American,"'450 10th Ave New York, NY 10018'",40.755311,-73.998389,802,4.0,2023-02-26 00:33:40.275921
4FtqGBB96denVJu8KnuGKg,The Milton,American,"'1754 2nd Ave New York, NY 10128'",40.781258,-73.948988,473,4.0,2023-02-26 00:33:40.275934
kortq9GFNGvV4ky_rVf88g,Hibernia Bar,American,"'401 W 50th St New York, NY 10019'",40.76365,-73.9890999,186,4.5,2023-02-26 00:33:40.275947
mbkBCEx8mgw9Qroo7xywPg,The Mean Fiddler,American,"'266 W 47th St New York, NY 10036'",40.7600569,-73.9871765,793,4.0,2023-02-26 00:33:40.275960
EqraPrrv6gAedeVogvt8xw,Long Acre Tavern,American,"'146 W 47th St New York, NY 10036'",40.7587089592894,-73.9836531096067,62,4.5,2023-02-26 00:33:40.275973
y8XaPw0U9WzUj8MUaW6HmA,Mikey Pomodoro,American,"'230 Park Ave New York, NY 10169'",40.754804468873886,-73.97603280212049,20,5.0,2023-02-26 00:33:40.275987
7Bb_IDWV_zJqpBjAvxuBIA,Cooper's Craft & Cocktails,American,"'87 2nd Ave New York, NY 10003'",40.72704,-73.9892,488,4.0,2023-02-26 00:33:40.275999
zHh6ioC3tSXBFhXXuXrL8A,Gebhard's Beer Culture,American,"'228 W 72nd St New York, NY 10023'",40.778946,-73.983219,156,4.0,2023-02-26 00:33:40.276011
uQ0kF3fiJFDm0oDVRaMBkw,Carla,American,"'25-03 40th Avenue Long Island City, NY 11101'",40.753517,-73.937647,133,4.5,2023-02-26 00:33:40.276023
ddKmJRZ3D1iS-gbZq03OWQ,Friedmans,American,"'228 W 47th St New York, NY 10036'",40.759682795270116,-73.98635286998487,724,4.0,2023-02-26 00:33:40.276036
3Ic4C60oSH1cV2jknUXSjQ,The Flatiron Room,American,"'37 W 26th St New York, NY 10010'",40.74452,-73.99049,995,4.5,2023-02-26 00:33:40.276049
1lPcNVCHCNE6KbQJzbguzQ,Cool World,American,"'905 Lorimer St Brooklyn, NY 11222'",40.72355,-73.95182,18,4.0,2023-02-26 00:33:40.276060
fSQ3CCtFSJ2S8VXDi02-3Q,Cafe Luxembourg,American,"'200 W 70th St New York, NY 10023'",40.77741,-73.98312,600,4.0,2023-02-26 00:33:40.276072
8bIXIStb1SVu1sXYfcMH5g,Ruby's Cafe,American,"'198 E 11th St New York, NY 10003'",40.730932,-73.988061,327,4.5,2023-02-26 00:33:40.276084
xwdyPDcF1PifAiXyNnyA5Q,Third Avenue Ale House,American,"'1644 3rd Ave New York, NY 10128'",40.7828,-73.95129,339,3.5,2023-02-26 00:33:40.276096
vy7nHSNLCLrz1wBUcQD78w,Peakaboo,American,"'30 Hudson Yards New York, NY 10001'",40.75403126805737,-74.00018509168463,4,4.0,2023-02-26 00:33:40.276108
sxE9fpmUb_kqaf_a17dYKQ,Gray Hawk Grill,American,"'1556 2nd Ave New York, NY 10028'",40.774353,-73.95401,82,4.5,2023-02-26 00:33:40.276172
k4ds_s6y8S46WzVIolypLQ,Serena's Wine Bar,American,"'1268 2nd Ave New York, NY 10065'",40.7652988,-73.9609017,159,4.0,2023-02-26 00:33:40.276187
stGcUKRbVS0H-Uv8DTVW4Q,The Factory 380,American,"'380 3rd Ave New York, NY 10016'",40.74164,-73.98132,142,4.5,2023-02-26 00:33:40.276200
FST41XVNfiBgJHkutII-3w,American Retro,American,"'714 11th Ave New York, NY 10019'",40.76618,-73.99409,230,4.0,2023-02-26 00:33:40.276211
G9ugU33zudDKp-xeOQK6YA,Friedman's Kitchen + Bar,American,"'233 W 49th St New York, NY 10019'",40.761349,-73.985575,24,4.5,2023-02-26 00:33:40.276223
2_oy2iBeT0Rg-oz4f0GF1A,The Jeffrey Craft Beer & Bites,American,"'311 E 60th St New York, NY 10022'",40.7611,-73.963,722,4.0,2023-02-26 00:33:40.276235
Lsd1lOvNmS3XSnZG1Qi3cQ,Little Rebel,American,"'219 2nd Ave New York, NY 10003'",40.73203,-73.98543,62,4.0,2023-02-26 00:33:40.276246
mXN9tmuDHZIfCeUBYqSRuQ,John Doe,American,"'253 5th Ave New York, NY 10016'",40.74477,-73.98701,183,4.0,2023-02-26 00:33:40.276258
vA5yC1MqC7N9gs9q-Kh2nQ,M J  Smith's Food & Spirits,American,"'9 East 45th St New York, NY 10017'",40.75514,-73.9786,44,4.5,2023-02-26 00:33:40.276269
4nohlTsGHEDdpwYkRTt-fA,Rudy's Bar & Grill,American,"'627 9th Ave New York, NY 10036'",40.76003419916213,-73.9917941990945,1169,4.0,2023-02-26 00:33:40.276282
vyyJNMgVo5b3Lyex5GawHg,District Local,American,"'72 7th Ave New York, NY 10011'",40.73917,-73.99946,62,4.5,2023-02-26 00:33:40.276294
GoxvwD8A3v6ztNSY8hcrXA,The Alvin Public House,American,"'406 E 64th St New York, NY 10065'",40.762295,-73.959222,73,4.5,2023-02-26 00:33:40.276306
63nYipWuA42RZmESBMUNkQ,The Bluebell Cafe,American,"'293 3rd Ave New York, NY 10010'",40.73845,-73.98321,662,4.0,2023-02-26 00:33:40.276317
15pcxijuNY8BMNzBhABt7w,Miss Lily's 7A Cafe,American,"'109 Avenue A New York, NY 10009'",40.726019,-73.9837551,870,4.0,2023-02-26 00:33:40.276329
YtXl15Nv7TZvV3yIqbZc8A,Burger & Lobster - Bryant Park,American,"'132 W 43rd St New York, NY 10036'",40.75596,-73.98532,1219,4.0,2023-02-26 00:33:40.276340
ANnbbwv_ZTFPcNdzSMUiZw,Nura,American,"'46 Norman Ave Brooklyn, NY 11222'",40.72467,-73.95371,91,4.5,2023-02-26 00:33:40.276352
v8_MaF5d2u5qZ6evINBsig,Coarse NY,American,"'306 W 13th St New York, NY 10014'",40.73913,-74.00363,306,4.5,2023-02-26 00:33:40.276364
0yg9DS4RDceQ6HgH3Jx80Q,Sean's Bar & Kitchen,American,"'42 West 48th St New York, NY 10036'",40.75801,-73.98008,399,4.0,2023-02-26 00:33:40.276375
JeCtYANe0eqW8xe1SN3lWg,Turntable Chicken Jazz,American,"'20 W 33rd St New York, NY 10001'",40.74828,-73.98649,2160,4.0,2023-02-26 00:33:40.276387
hGo9KArKThuOKxNbwmNpoA,Ruby's Cafe,American,"'219 Mulberry St New York, NY 10012'",40.7223288,-73.996326,1548,4.0,2023-02-26 00:33:40.276398
wb06aCfVIf8I8ufPJ5zflg,Sidney's Five,American,"'103 1st Ave New York, NY 10003'",40.7267,-73.98621,63,4.5,2023-02-26 00:33:40.276410
SjG7CnTIuUBIo9T4BThkGQ,Employees Only,American,"'510 Hudson St New York, NY 10014'",40.73343,-74.00617,1586,4.0,2023-02-26 00:33:40.276421
6xEazbynf3s4o7ucP7aNsg,Pomona NYC,American,"'8 W 58th St Pomona Restaurant New York, NY 10019'",40.7639184,-73.9744408,32,4.5,2023-02-26 00:33:40.276433
8nXo6lNJlXQQIdy8Kf7J9Q,Tessa,American,"'349 Amsterdam Ave New York, NY 10024'",40.7814059,-73.97918,448,4.0,2023-02-26 00:33:40.276446
38YuedP0ItlKbC-ncJ1XCQ,Tavern on Jane,American,"'31 8th Ave New York, NY 10014'",40.73822,-74.00426,446,4.0,2023-02-26 00:33:40.276457
W1pBIFhkjJwjTe2P7o57yg,Lilly's Cocktail and Wine,American,"'50 W 72nd St New York, NY 10023'",40.77698,-73.9785,149,4.0,2023-02-26 00:33:40.276468
zm0caDw9rdHy6s0pEZBVIA,35 Ave Diner,American,"'30-01 35th Ave Queens, NY 11106'",40.758596994102525,-73.9290602030602,1,5.0,2023-02-26 00:33:40.276481
ryvBsB9FrBBZDak87iGS1w,Sea Fire Grill,American,"'158 E 48th St New York, NY 10017'",40.7547045987751,-73.97222533963885,1471,4.5,2023-02-26 00:33:40.276495
yihja79D40NH8J6acX1Xwg,The Grey Dog,American,"'55 W 26th St New York, NY 10010'",40.745014,-73.990886,104,4.0,2023-02-26 00:33:40.276507
h91WSlCOdxaQOohJ0YVkxA,Black Tap Craft Burgers & Beer,American,"'45 W 35th St New York, NY 10016'",40.750089,-73.985986,198,4.0,2023-02-26 00:33:40.276518
5TX0X8w5ssIACU_pnBEq6g,Tony's Di Napoli,American,"'147 W 43rd St New York, NY 10036'",40.75641,-73.98547,2487,4.0,2023-02-26 00:33:40.276530
uzgm62hqepTIiaG1Gx7EAw,The Crooked Knife,American,"'540 2nd Ave New York, NY 10016'",40.74204,-73.9775,29,4.5,2023-02-26 00:33:40.276542
8XHbZIKDQbXhyKIGiukVeQ,Boucherie Union Square,American,"'225 Park Ave S New York, NY 10003'",40.73725824850519,-73.9882252705524,1347,4.5,2023-02-26 00:33:41.319591
MNNpsRXe7Wt5m3Jla9Wk0w,The Alcove,American,"'41-11 49th St Sunnyside, NY 11104'",40.7459065,-73.915103,1068,5.0,2023-02-26 00:33:41.319620
k3IP2lWur7dEFCsSFwBXAA,Sereneco,American,"'113 Franklin St Brooklyn, NY 11222'",40.73025024164356,-73.95781014114618,38,4.0,2023-02-26 00:33:41.319637
B55Ocx5RBWxo6AGSucYSIA,Ilili,American,"'236 5th Ave New York, NY 10001'",40.74435,-73.98778,2669,4.0,2023-02-26 00:33:41.319650
kMxXLrASxsbmS-ZzAaBe-A,Molly's,American,"'287 3rd Ave New York, NY 10010'",40.73825,-73.98321,568,4.0,2023-02-26 00:33:41.319662
bEloKDe-QVkwakAwmFKbbA,Frying Pan,American,"'207 12th Avenue Big Red Boat in Park New York, NY 10001'",40.7521174043978,-74.0090024471283,1619,4.0,2023-02-26 00:33:41.319675
lXGCo-K7eftxRT_6E59-Iw,Union Square Cafe,American,"'101 E 19th St New York, NY 10003'",40.737772,-73.987876,1340,4.0,2023-02-26 00:33:41.319689
3NbhYebjZPjLTWZZyRuhsw,The Winslow,American,"'243 E 14th St New York, NY 10003'",40.7327766418457,-73.9852142333984,646,4.5,2023-02-26 00:33:41.319702
LA7riLKSg-aBLgTY4fT8GQ,Sarabeths - Central Park,American,"'40 Central Park S New York, NY 10019'",40.765309133261134,-73.97575546667402,2066,3.5,2023-02-26 00:33:41.319716
Rpw8mQPKJb8esVjosT4Sog,Valhalla,American,"'815 9th Ave New York, NY 10019'",40.76596,-73.98737,518,4.0,2023-02-26 00:33:41.319729
lNP1km2kaEtlsBw2VNHHhQ,Tap Haus 33,American,"'14 E 33rd St New York, NY 10016'",40.747247,-73.9843,282,4.5,2023-02-26 00:33:41.319740
dc3hkLkAqCSxDWQzrx-g9A,Quality Italian,American,"'57 W 57th St New York, NY 10019'",40.7644044527436,-73.9767805051616,1330,4.0,2023-02-26 00:33:41.319753
fVbUVAiLiGgLA_nxBFxyww,Thursday Kitchen,American,"'424 E 9th St New York, NY 10009'",40.72761,-73.98373,1696,4.5,2023-02-26 00:33:41.319766
1raTNJpNeTOLLJsm5YY1mA,As You Are,American,"'252 Schermerhorn St Brooklyn, NY 11217'",40.687901987667885,-73.98367965580849,34,3.5,2023-02-26 00:33:41.319778
gosjtZsjmPTIBY4eB4qD2Q,Bravest,American,"'700 2nd Ave New York, NY 10016'",40.747115,-73.973961,227,4.0,2023-02-26 00:33:41.319791
rrsjcQVLg2PkIkO_vPjOLw,The Bonnie,American,"'29-12 23rd Ave Astoria, NY 11105'",40.7746737,-73.9136003,766,4.0,2023-02-26 00:33:41.319803
yFB5JUiz-SPpnhWg2iCU9w,The Long Hall Pub & Grocery,American,"'58 E 34th St New York, NY 10016'",40.7472791,-73.98218867469573,111,4.5,2023-02-26 00:33:41.319815
PHSsvGDW6Rh2pGWEDTrDew,Death Ave,American,"'315 10th Ave New York, NY 10001'",40.75105092190377,-74.00194808204913,651,4.0,2023-02-26 00:33:41.319828
fwH7iD4-xY2ABrlZznP8CA,Quality Eats,American,"'1496 2nd Ave New York, NY 10075'",40.77246055407929,-73.95538748145974,410,4.0,2023-02-26 00:33:41.319841
8F81LrdFm6P5kkFpsw0n0w,Sweet Chick,American,"'178 Ludlow St New York, NY 10002'",40.7217399,-73.98739,1874,4.0,2023-02-26 00:33:41.319854
9AXTJkwXdWaJaQkCjpj6mA,Sunday in Brooklyn,American,"'348 Wythe Ave Brooklyn, NY 11249'",40.714181240175115,-73.96532809508915,1215,4.0,2023-02-26 00:33:41.319866
FxswnvW4Fat6dFYcQNaE7Q,Hall,American,"'17 W 20th St New York, NY 10011'",40.74032,-73.99223,68,4.5,2023-02-26 00:33:41.319879
8SehQovJOuQDLbtzLLYLyw,RH Rooftop Restaurant New York,American,"'9 9th Ave New York, NY 10014'",40.73985,-74.00639,758,4.0,2023-02-26 00:33:41.319890
4LoroCI3VtQ17dyQa75-Rg,The Warren,American,"'131 Christopher St New York, NY 10014'",40.7331,-74.0067,280,4.0,2023-02-26 00:33:41.319902
KoGN70ndDHkJmMXiDCBS3A,BG Restaurant,American,"'754 5th Ave New York, NY 10019'",40.76339,-73.97404,447,4.0,2023-02-26 00:33:41.319968
NT2mKx3_kxO9tpjeP2Sv6Q,The Malt House,American,"'206 Thompson St New York, NY 10012'",40.728647,-73.999383,474,4.0,2023-02-26 00:33:41.319983
m9zYRZFubncaWsQFIfNo5g,Loulou Petit Bistro & Speakeasy,American,"'176 8th Ave New York, NY 10011'",40.742627091934104,-74.00005776653397,445,4.0,2023-02-26 00:33:41.319996
tmzWZtu9Nimn7Hfas9XmcA,Quality Bistro,American,"'120 W 55th St New York, NY 10019'",40.76306,-73.9786,284,4.0,2023-02-26 00:33:41.320008
dbxrlDoBwR6br4htUy8YpA,Marian's,American,"'24 Greenwich Ave New York, NY 10011'",40.73492,-73.99995,44,4.5,2023-02-26 00:33:41.320020
GEbvV8QRegWwF6JQHfsOyA,The Fitz,American,"'687 Lexington Ave Fitzpatrick Manhattan New York, NY 10022'",40.7606323,-73.9692139,29,3.5,2023-02-26 00:33:41.320032
U6QXIbz1dly_3nzgfnHB4w,Bella Union,American,"'411 3rd Ave New York, NY 10016'",40.74242,-73.98032,38,4.0,2023-02-26 00:33:41.320044
QTVaZDiFElJ-d8vqd0DWww,Emmy Squared Pizza - Upper East Side,American,"'1426 3rd Ave New York, NY 10028'",40.77564,-73.9565,248,4.0,2023-02-26 00:33:41.320055
77EedCTJY1biWIYSzAulCQ,J.G. Melon,American,"'1291 3rd Ave New York, NY 10021'",40.77105,-73.95931,1497,3.5,2023-02-26 00:33:41.320068
lUQR6cZlHHKXOksH5xOTqA,Joe Allen,American,"'326 W 46th St New York, NY 10036'",40.76005,-73.98913,442,4.0,2023-02-26 00:33:41.320079
v7mKkgT84i6shnKRhxa1aQ,Lafolia,American,"'780 3rd Ave New York, NY 10017'",40.755,-73.97172,17,5.0,2023-02-26 00:33:41.320090
4rWJGwb3rjDoZHA0AECa5A,Melba's Restaurant,American,"'300 W 114th St New York, NY 10026'",40.8031468838453,-73.9565069228411,1627,4.0,2023-02-26 00:33:41.320103
YSflX6shqcP3zYno0Zz75Q,While We Were Young,American,"'183 W 10th St New York, NY 10014'",40.73437,-74.00272,436,4.0,2023-02-26 00:33:41.320115
AsN3B_FjIDxjISs9K_d_ZQ,Peachy Keen,American,"'325 W 44th St New York, NY 10036'",40.75919366932837,-73.98975277259541,322,4.5,2023-02-26 00:33:41.320128
dMhRafXdr765DHe0k-QfaQ,ABC Kitchen,American,"'35 E 18th St New York, NY 10003'",40.73775008339078,-73.98963413652181,3162,4.0,2023-02-26 00:33:41.320141
owYYuyLvlsdjLz68c3SSfg,Taboonette,American,"'30 E 13th St New York, NY 10003'",40.7346038818359,-73.9928283691406,984,4.5,2023-02-26 00:33:41.320154
vQcK7BH6maW9dAZWJOuW3Q,The Mermaid Inn,American,"'570 Amsterdam Ave New York, NY 10024'",40.7887398925594,-73.9744491607132,1295,4.0,2023-02-26 00:33:41.320166
dS2VNgvdLCAxImvcVBV6wA,Papillon Bistro & Bar,American,"'22 E 54th St New York, NY 10022'",40.760463700357,-73.9742553564245,494,3.5,2023-02-26 00:33:41.320180
6gzQLjzJk25ePm_JS7ZAug,Esme,American,"'999 Manhattan Ave Brooklyn, NY 11222'",40.73322607409529,-73.95492695812946,393,4.5,2023-02-26 00:33:41.320193
XoDR_T-ZKYJtZgCocEDcyA,Print,American,"'653 11th Ave New York, NY 10036'",40.76452,-73.99586,928,4.0,2023-02-26 00:33:41.320205
raqwXUBlnc0e8c7CYmxEJQ,Scarpetta,American,"'88 Madison Ave New York, NY 10016'",40.744509,-73.9856,2220,4.0,2023-02-26 00:33:41.320216
Q1_UvNyONsaVS_VC1mD9Dw,Osteria Cotta,American,"'513 Columbus Ave New York, NY 10024'",40.78554,-73.97263,1032,4.0,2023-02-26 00:33:41.320227
PYcL2z9gHj6-ZTlViT9Nqw,Minetta Tavern,American,"'113 Macdougal St New York, NY 10012'",40.7300047976758,-74.0006073834151,2404,4.0,2023-02-26 00:33:41.320240
h9nuvIu8TyrQcYy8J1AOxg,The Ellington,American,"'2745 Broadway New York, NY 10025'",40.80087,-73.96823,93,4.5,2023-02-26 00:33:41.320252
q1uIqB8PvyCCX8TajaRYBg,Little Owl,American,"'90 Bedford St New York, NY 10014'",40.73240001181511,-74.00532068435112,1424,4.0,2023-02-26 00:33:41.320264
00kdvS6FY0gTN5BV03tx5Q,Peak,American,"'30 Hudson Yards Fl 101 New York, NY 10001'",40.7541644,-74.0009082,364,4.5,2023-02-26 00:33:41.320277
q1uIqB8PvyCCX8TajaRYBg,Little Owl,American,"'90 Bedford St New York, NY 10014'",40.73240001181511,-74.00532068435112,1424,4.0,2023-02-26 00:33:42.369422
XO3yD87rTPz9o6Dy9qRaJg,The Spaniard,American,"'190 W 4th St New York, NY 10014'",40.7327497,-74.0021829,345,3.5,2023-02-26 00:33:42.369455
VCqNjupCWZ5INzOcyBMJSg,The Grey Dog - Union Square,American,"'90 University Pl New York, NY 10003'",40.733828,-73.993052,1171,4.0,2023-02-26 00:33:42.369470
WKDdD8Z17-P1XhkyJtDEFA,Johny's Luncheonette,American,"'124 W 25th St New York, NY 10001'",40.7444458007812,-73.9930725097656,1160,4.5,2023-02-26 00:33:42.369485
RemvTpxalDjSew5HwmNzUQ,The Dead Rabbit,American,"'30 Water St New York, NY 10004'",40.70329,-74.01102,1830,4.0,2023-02-26 00:33:42.369498
nsnPyoDYc_fYCxZfgKdzmw,82 Stanton,American,"'82 Stanton St New York, NY 10002'",40.721701,-73.988817,29,4.5,2023-02-26 00:33:42.369510
mqaSFe9PL_10NsCNnGSo_g,Narcisse,American,"'344 E 59th St New York, NY 10022'",40.75975,-73.96254,15,4.5,2023-02-26 00:33:42.369522
xTWpl9DgIkkr5B8h8_xUpA,Lokal 83 Mediterranean Kitchen,American,"'473 Columbus Ave 83rd street New York, NY 10024'",40.7842696,-73.9734941,447,4.5,2023-02-26 00:33:42.369534
9o4y3IqpFDaj8FddJ6oi2A,Clement,American,"'700 5th Ave New York, NY 10019'",40.7616673527305,-73.9755601503319,159,4.0,2023-02-26 00:33:42.369548
OAqsZMbjv66nOMqlimnYuQ,Uva,American,"'1486 2nd Ave New York, NY 10075'",40.77219299003591,-73.95561517222123,2703,4.0,2023-02-26 00:33:42.369561
WZ0oP9yLxgSPMjXfDQtUig,7th Street Burger,American,"'1603 2nd Ave New York, NY 10028'",40.77616,-73.95321,87,4.5,2023-02-26 00:33:42.369573
R4iq3Tt5I0qJMVagiajz3g,Tiki Chick,American,"'517 Amsterdam Ave New York, NY 10024'",40.7868748563606,-73.9754194,257,4.5,2023-02-26 00:33:42.369586
VBKCeFh76btxKlL827HTqA,The Liberty,American,"'29 W 35th St New York, NY 10001'",40.74984,-73.98556,531,3.5,2023-02-26 00:33:42.369598
OQbccovdHgjenH-sJIbFPw,Clover Hill,American,"'20 Columbia Pl Brooklyn, NY 11201'",40.69316,-73.99871,35,4.5,2023-02-26 00:33:42.369609
XvcRtA3pD6gpICLsdsQVbA,David Burke Tavern,American,"'135 E 62nd St New York, NY 10065'",40.76436,-73.96714,251,4.0,2023-02-26 00:33:42.369621
5gVOw3RTaZ-NavNQx2M83g,Gayle's Broadway Rose,American,"'228 W 47th St at Friedmans at the Edison Hotel New York, NY 10036'",40.7596626938107,-73.9862253357964,59,4.5,2023-02-26 00:33:42.369634
FWjl6BrMie6H78OSWJG5Pg,Bareburger - Columbus Circle,American,"'313 W 57th St New York, NY 10019'",40.76726,-73.98346,455,4.0,2023-02-26 00:33:42.369647
xEF3Kvd0yw74pjnlFB2Sgg,Nobody Told Me,American,"'951 Amsterdam Ave New York, NY 10025'",40.800806379326424,-73.96519384340974,215,4.5,2023-02-26 00:33:42.369661
dNFsMw-z3Vsa5TbJd9Q4Ew,Faces & Names,American,"'159 W 54th St New York, NY 10019'",40.76351,-73.98098,411,4.0,2023-02-26 00:33:42.369673
64olT1goXFQEATQO_oiSLg,The Gray Mare,American,"'61 2nd Ave New York, NY 10003'",40.726035,-73.989936,117,4.5,2023-02-26 00:33:42.369685
xdMdBVzffvtuT22sMbdh3A,Sedona Taphouse,American,"'679 Anderson Ave One Towne Ctr Cliffside Park, NJ 07010'",40.82858303205579,-73.98662048663276,377,4.0,2023-02-26 00:33:42.369697
Esgyg0dRzBQJFMuVSaCYww,As Is NYC,American,"'734 10th Ave New York, NY 10019'",40.7645799,-73.9914759,248,4.0,2023-02-26 00:33:42.369710
0roFOyJMaFvSD8Ceh89YRw,Home Base Bistro,American,"'416 3rd Ave New York, NY 10016'",40.7431,-73.98032,103,4.0,2023-02-26 00:33:42.369722
SGuuUMawkDo2R7D8Y-08ew,Rosevale Kitchen,American,"'305 W 48th St New York, NY 10036'",40.7614304,-73.9874512,10,4.5,2023-02-26 00:33:42.369734
fAe8n5o-haxmSvEaHSQ9wQ,Copper John’s Pub + Kitchen,American,"'160 W 54th St New York, NY 10019'",40.763298545058,-73.981141,102,4.0,2023-02-26 00:33:42.369747
UXVDyIzmO5kmJnlv-HDXLg,Cafeteria,American,"'119 7th Ave New York, NY 10011'",40.740567590122,-73.9980747946,3577,3.5,2023-02-26 00:33:42.369761
w4cFJhUpjGXqqWBd3BbY4w,Freemans,American,"'Freeman Alley New York, NY 10002'",40.721988,-73.992466,2199,4.0,2023-02-26 00:33:42.369773
SmLFW1Ncg26KfVRVX3GVFQ,Little Mad,American,"'110 Madison Ave New York, NY 10016'",40.74502,-73.98513,165,4.5,2023-02-26 00:33:42.369785
3iLPrhNb02n81GdxP_jqgQ,North Square,American,"'103 Waverly Pl New York, NY 10011'",40.73251,-73.99866,319,4.0,2023-02-26 00:33:42.369796
b2naaHiaR57Hm6JZG0njPg,Draught 55,American,"'245 E 55th St New York, NY 10022'",40.758377,-73.966515,404,4.0,2023-02-26 00:33:42.369874
D22DefOjniA9XoYRrcfO6A,Darkside Of The Moo,American,"'339 W 44th St Hell's Kitchen New York, NY 10036'",40.75937,-73.99056,43,4.5,2023-02-26 00:33:42.369889
h8XLhVVPoYPYodZqQOjRMw,Robert,American,"'2 Columbus Cir New York, NY 10019'",40.767394,-73.982036,1012,4.0,2023-02-26 00:33:42.369902
5f4tRvdXT9C2lHJ0prpmsw,Jolene,American,"'54 Great Jones St New York, NY 10012'",40.7267147574463,-73.9921676237617,36,4.0,2023-02-26 00:33:42.369914
xprzjm5svSSUCZOnaUbQDQ,Jimmy's Corner,American,"'140 W 44th St New York, NY 10036'",40.7566,-73.98483,646,4.0,2023-02-26 00:33:42.369926
L4X_JF77DpyTLcmzYpLhxw,Aura Bar & Kitchen,American,"'111 1st Ave New York, NY 10003'",40.72697434258867,-73.986114,4,5.0,2023-02-26 00:33:42.369938
bAyMbjXt7klyhQHORPy4Mg,Life Rooftop,American,"'120 W 57th St New York, NY 10019'",40.764526458077704,-73.97845877921715,35,4.0,2023-02-26 00:33:42.369951
IGZkGbwE36iE1yaDW5NNKA,The Flying Cock,American,"'497 3rd Ave New York, NY 10016'",40.74535,-73.97821,666,4.0,2023-02-26 00:33:42.369963
fAu6e8uCg1lfqIQ1PKNZyA,Tipsy NoMad,American,"'37 E 28th St New York, NY 10016'",40.743772,-73.984627,32,4.5,2023-02-26 00:33:42.369975
qhyll2gPT-gGDRP6JGn1aQ,Bice Cucina - Midtown,American,"'62 W 55th St New York, NY 10019'",40.7624702435463,-73.9768997892404,152,4.0,2023-02-26 00:33:42.369987
V3USzFEGhuoXez4G2Rk11A,Tavola,American,"'488 9th Ave New York, NY 10018'",40.755403,-73.994516,1234,4.0,2023-02-26 00:33:42.369999
jDIVPYpxQAk1HUAi0NIlQw,Pazza Notte,American,"'1375 Avenue Of The Americas New York, NY 10019'",40.76348,-73.978091,998,4.0,2023-02-26 00:33:42.370011
0y6eQXDw2RDLuBwkY02xGA,Aretsky's Patroon,American,"'160 E 46th St New York, NY 10017'",40.7533599,-73.9732416,249,4.0,2023-02-26 00:33:42.370023
-RkDkGy906oZcdx-YamQIQ,Veggie Grill,American,"'1004 2nd Ave New York, NY 10022'",40.75679,-73.96679,1,4.0,2023-02-26 00:33:42.370035
nF-EOBd_H1fX50iT1EIVZA,Pil Pil,American,"'265 E 78th St New York, NY 10075'",40.7728412,-73.9558687,783,4.0,2023-02-26 00:33:42.370046
1o7Z7uqwGfXmHnUZxW48Ug,THE HUNTRESS whiskey n' wings,American,"'24-03 41st Ave Long island City, NY 11101'",40.7525625982243,-73.9395872725611,225,4.0,2023-02-26 00:33:42.370058
tmuHs6fSAUygPyRZUF-rEA,Pier i Cafe,American,"'500 W 70th St New York, NY 10023'",40.77993458745901,-73.98879,442,4.0,2023-02-26 00:33:42.370072
zcPWqsiqaPpNh8nJXR4gpw,The Commodore,American,"'366 Metropolitan Ave Brooklyn, NY 11211'",40.7138257110445,-73.9556050300598,628,4.0,2023-02-26 00:33:42.370084
Ps0cOZevNA1M9M5_z7W3oQ,Joseph Leonard,American,"'170 Waverly Pl New York, NY 10014'",40.7336021670705,-74.001675412843,723,4.0,2023-02-26 00:33:42.370097
cwD8P236dJisusmJ1qaIEA,7th Street Burger,American,"'424 Amsterdam Ave New York, NY 10024'",40.78418,-73.97795,39,4.5,2023-02-26 00:33:42.370109
ZgU1Jmw9Itx_bEveDXtiFA,Jackson's Eatery | Bar,American,"'10-37 Jackson Ave Long Island City, NY 11101'",40.74241,-73.95323,362,4.0,2023-02-26 00:33:42.370121
GuzlMBKNoClNx5I1-x-DDg,53 NYC,American,"'53 W 53rd St New York, NY 10019'",40.76179318437133,-73.9780863,60,4.0,2023-02-26 00:33:43.415362
k5NAz3-goMXKoUqPfOZ1Hw,The Smith,American,"'55 3rd Ave New York, NY 10003'",40.73101549145275,-73.9886217,2154,3.5,2023-02-26 00:33:43.415393
oT6z_r5S2i_sTxjU1E5SHQ,Jack & Charlie’s No. 118,American,"'118 Greenwich Ave New York, NY 10011'",40.73881,-74.00232,56,4.0,2023-02-26 00:33:43.415408
utM-5navObsVA5sCRHobzA,Madre,American,"'214 Franklin St Brooklyn, NY 11222'",40.73311,-73.95798,137,4.5,2023-02-26 00:33:43.415423
-Fv6St_t9ScaH2088owNRQ,Kings' Carriage House,American,"'251 E 82nd St New York, NY 10028'",40.775577,-73.953887,267,4.0,2023-02-26 00:33:43.415435
TnX-mUXtxIO9lUxMnn9UJQ,Old Fashion cafe,American,"'110 Thompson St New York, NY 10012'",40.72575102449529,-74.0017575,11,4.5,2023-02-26 00:33:43.415449
B-MDhRKRTmTqj4Vp_p8AGw,P.J. Clarke's,American,"'250 Vesey St New York, NY 10281'",40.71376403876921,-74.01622797321502,667,3.0,2023-02-26 00:33:43.415462
kH5RMIaFmd-bekCIhOcqDw,Landmark Tavern,American,"'626 11th Ave New York, NY 10036'",40.763156,-73.996253,335,4.0,2023-02-26 00:33:43.415475
0BzxIsoRuFvxbMPl-iH70A,Market Table,American,"'54 Carmine St New York, NY 10014'",40.7297659255873,-74.0037665277862,856,4.0,2023-02-26 00:33:43.415488
bOHWY14f1u8rR1t2ggmbYw,B Cafe East,American,"'240 E 75th St New York, NY 10021'",40.770932338610784,-73.95762317674783,479,4.0,2023-02-26 00:33:43.415501
OFFSpIPqvwOnwdcEq8usvw,Motel Morris,American,"'132 7th Ave New York, NY 10011'",40.7409807,-73.9980996,236,4.0,2023-02-26 00:33:43.415514
OtsLOJ4LbAHQ5UzYZBv58Q,The Chick Inn Kips Bay,American,"'415 3rd Ave New York, NY 10016'",40.74262,-73.98017,48,4.5,2023-02-26 00:33:43.415526
fuSjpC1qw3fLih5SYUoOvg,Jack's Wife Freda,American,"'258 Wythe Ave New York, NY 11249'",40.71707,-73.96322,45,4.0,2023-02-26 00:33:43.415538
jvx3UEV66_Q2x5GnNHGmBQ,DIG,American,"'856 8th Ave New York, NY 10019'",40.7631299,-73.98527,217,4.0,2023-02-26 00:33:43.415550
nMWqlWid2YfDeutioit_0w,Bill's Bar & Burger,American,"'16 W 51st St New York, NY 10019'",40.75929,-73.977534,1469,3.5,2023-02-26 00:33:43.415561
4DRk7BQ9X4Zn2vr_xwD29Q,Frank Ottomanelli’s,American,"'52-10 Center Blvd Long Island City, NY 11101'",40.74182,-73.96031,1,5.0,2023-02-26 00:33:43.415573
QhE50zhSMnQaudpHW1jp7g,The Tyger,American,"'1 Howard St New York, NY 10013'",40.71888,-73.99951,421,4.0,2023-02-26 00:33:43.415586
iSU0jOOOplLIwdybM_zEtA,The Gold Room,American,"'455 Madison Ave New York, NY 10022'",40.75797812074806,-73.97516064886855,23,4.0,2023-02-26 00:33:43.415598
WWyVq90yo4u3kWEj1Lr7rw,The Grand Feast,American,"'854 Amsterdam Ave New York, NY 10025'",40.797851,-73.967989,4,5.0,2023-02-26 00:33:43.415611
-7PnG_cD9VY-IfHGWzynmQ,Ainslie,American,"'76 Ainslie St Brooklyn, NY 11211'",40.712343,-73.952121,487,4.0,2023-02-26 00:33:43.415622
NDIrifAl6K-RrnZ2D3ZGbw,Emily,American,"'919 Fulton St Brooklyn, NY 11238'",40.68351,-73.96643,905,4.0,2023-02-26 00:33:43.415634
rVwQcrogYw-O2SsAk51iYA,Bemelmans Bar,American,"'35 E 76th St Carlyle Hotel New York, NY 10021'",40.7743790493761,-73.9633083343506,356,4.0,2023-02-26 00:33:43.415646
Vz1At3Ku-vStSy4dFt145Q,Bistro Verde,American,"'225 W 57th St New York, NY 10019'",40.7662427,-73.9812435,43,4.0,2023-02-26 00:33:43.415659
JboVlCv3LtJt8hA-yI9U0A,Beija Flor,American,"'38-02 29th St Long Island City, NY 11101'",40.754601940029,-73.9336216385827,276,4.0,2023-02-26 00:33:43.415671
L7_MTRZyYp_i-cnH2CU4zQ,Dudley's,American,"'85 Orchard St New York, NY 10002'",40.71798,-73.99042,972,4.0,2023-02-26 00:33:43.415684
Vs8kQ4R381y27AH018gLpg,Supper,American,"'156 E 2nd St New York, NY 10009'",40.72290786539601,-73.98520720537888,1461,4.0,2023-02-26 00:33:43.415696
ooYUO3Pq_qypc1NXFzeLYQ,City Vineyard,American,"'233 West St New York, NY 10013'",40.7205582,-74.0118093,1133,4.0,2023-02-26 00:33:43.415708
S4Euw4DYSqeU4KcteFXqHg,Little Beet Table,American,"'333 Park Ave S New York, NY 10010'",40.741086,-73.985333,633,4.0,2023-02-26 00:33:43.415720
mIbmzqQ473BUF8cngXXs_Q,Joy Love Club,American,"'232 8th Ave New York, NY 10011'",40.7444,-73.99891,126,4.5,2023-02-26 00:33:43.415732
CAXzWJyV2UzYMAImM_YkWA,The Grill,American,"'99 E 52nd St New York, NY 10022'",40.75832986948616,-73.9718681,241,4.0,2023-02-26 00:33:43.415744
DhBhEWMVLDxYF14a1znUvA,Lighthouse,American,"'145 Borinquen Pl Brooklyn, NY 11211'",40.710871611836815,-73.95371897659477,294,4.0,2023-02-26 00:33:43.415757
rpVX-o82EEOX8ZDnM28a_Q,Bistango,American,"'145 E 50th St The Kimberly Hotel New York, NY 10022'",40.75628,-73.97144,344,4.0,2023-02-26 00:33:43.415769
La0m0JQirzld8XSyyf37tg,Barcelona Bar,American,"'923 8th Ave New York, NY 10019'",40.765356,-73.984113,464,4.0,2023-02-26 00:33:43.415781
N5UY113nNpeKdLPv0cbMjQ,The Wild Son Lunch Counter,American,"'130 First Ave New York, NY 10009'",40.72737,-73.98525,580,4.5,2023-02-26 00:33:43.415793
tjVrrylKbRr5lOVEVmiYMw,L'Adresse  - NoMad,American,"'1184 Bdway New York, NY 10001'",40.75095,-73.99811,29,4.0,2023-02-26 00:33:43.415804
1Q3oaJahyGRogDWgpo7PIw,Five Leaves,American,"'18 Bedford Ave Brooklyn, NY 11222'",40.72371830945,-73.95159863632,1705,4.0,2023-02-26 00:33:43.415873
JL_p-OHtSEYVfoeLQQgqDA,Casellula,American,"'401 W 52nd St New York, NY 10019'",40.76499,-73.98835,951,4.0,2023-02-26 00:33:43.415889
OtHJp8-Nw1rtoKdzkoVPxQ,Three Guys Restaurant,American,"'960 Madison Ave Ste 1 New York, NY 10021'",40.7741355895996,-73.9640731811523,116,3.0,2023-02-26 00:33:43.415901
3qIISjUYn1tbqHXi7nCLXg,Sofia Wine Bar,American,"'242 E 50th St New York, NY 10022'",40.75502,-73.96913,736,4.0,2023-02-26 00:33:43.415914
JnFV_qz7uWbLTY80K89J7Q,Emmett's,American,"'50 Macdougal St New York, NY 10012'",40.727303,-74.00243,591,4.0,2023-02-26 00:33:43.415926
nD7Hcq5aaCASbWzc0-Sg3A,Bobwhite Counter,American,"'94 Ave C New York, NY 10009'",40.72365,-73.97899,886,4.5,2023-02-26 00:33:43.415938
HlEKex3DUkyp_zH_eCEqGQ,Pekarna NYC,American,"'594 Amsterdam Ave New York, NY 10024'",40.78965,-73.973992,57,4.5,2023-02-26 00:33:43.415949
zgW7g4RWssKfjdlSE8fZvg,Sweet Afton,American,"'30-09 34th St Astoria, NY 11103'",40.765352,-73.918983,1147,4.0,2023-02-26 00:33:43.415961
2lOF2K5CoZ1QqmfRNF_mcA,Ryan's Daughter,American,"'350 E 85th St New York, NY 10028'",40.77628,-73.95048,247,4.0,2023-02-26 00:33:43.415973
KMrQFZY20m4-Dnu3VGltrg,The Hamilton,American,"'998 Amsterdam Ave New York, NY 10025'",40.8027668786632,-73.9640214206238,124,4.5,2023-02-26 00:33:43.415986
qQyknbv7ndx0HslLZd7xyg,A.cafe,American,"'42 W 58th St New York, NY 10019'",40.7643165588379,-73.9756622314453,278,4.0,2023-02-26 00:33:43.415999
3FayPk6to5oSxZ5gEo6mYQ,The Nines,American,"'9 Great Jones St New York, NY 10012'",40.72732,-73.99398,29,4.0,2023-02-26 00:33:43.416010
JI_teX5hC2rvHRbAo9JRTw,Quality Eats,American,"'19 Greenwich Ave New York, NY 10014'",40.7345,-74.00004,518,4.0,2023-02-26 00:33:43.416022
-KKgqE2g4c1cH4YmmDR9CQ,Bernie's,American,"'332 Driggs Ave Brooklyn, NY 11222'",40.721936,-73.950597,108,4.5,2023-02-26 00:33:43.416033
OppTOs3uBwOG29yF45lb8A,Mister French,American,"'24 E 21st St New York, NY 10010'",40.7393774,-73.9889987,99,4.0,2023-02-26 00:33:43.416045
XpYm_l-zKI3Rl4E8WODIDA,The Levee,American,"'212 Berry St Brooklyn, NY 11211'",40.7163303847776,-73.9617204666138,403,4.0,2023-02-26 00:33:44.505585
_gzXNKarTxagBp6_PkmQKw,Gotham Restaurant,American,"'12 E 12th St New York, NY 10003'",40.734186,-73.99355407018984,1675,4.0,2023-02-26 00:33:44.505627
nxLIDCYZoP0FaGy-1dzyHA,Pando Park,American,"'450 Park Ave S New York, NY 10016'",40.74499,-73.983227,0,0.0,2023-02-26 00:33:44.505642
ndd1BQLqFINytM4kbkCjgQ,La Bergamote,American,"'515 W 52nd St New York, NY 10019'",40.7663868,-73.9915846,413,4.0,2023-02-26 00:33:44.505655
EaAAP-gDALDL7GxcseMjBQ,The Polo Bar,American,"'1 E 55th St New York, NY 10022'",40.76157,-73.9744,472,4.0,2023-02-26 00:33:44.505667
B7CwOlzzJQipKDMYHhDNzw,P McDaid's Irish Pub,American,"'837 7th Ave New York, NY 10019'",40.76349,-73.98134,17,4.5,2023-02-26 00:33:44.505680
fOhgitD0K_uetj9GbedonA,Linen Hall,American,"'101 3rd Ave New York, NY 10003'",40.7323193887187,-73.9876905276754,170,4.0,2023-02-26 00:33:44.505692
CtVc-dAD0kK62DHJUMgOlw,DIG,American,"'150 E 52nd St New York, NY 10022'",40.757228887576524,-73.97072053336949,296,4.0,2023-02-26 00:33:44.505706
JCZTtZBWNZmHe52BLxfmYA,Annie Moore's Bar & Restaurant,American,"'22 E 41st St New York, NY 10017'",40.75222260401775,-73.98027925110723,205,3.5,2023-02-26 00:33:44.505719
9oyE5T8P3YfTYjKrOn-i3w,Rosie O'Grady's,American,"'800 7th Ave New York, NY 10019'",40.762621,-73.982506,611,3.0,2023-02-26 00:33:44.505732
MfbVI5reXLIIs8Cc2HwgQw,Breakroom,American,"'83 Baxter St New York, NY 10013'",40.7166907225542,-73.9999440120647,1680,4.5,2023-02-26 00:33:44.505745
o4SxKXs2GmAp9R4Oi74_MQ,7th Street Burger,American,"'364 3rd Ave New York, NY 10016'",40.74115036458325,-73.98184169598186,62,4.5,2023-02-26 00:33:44.505758
9tWsM0Ol6CGqfBWKzwdwyg,Maggie Reillys Restaurant,American,"'340 9th Ave New York, NY 10001'",40.7504318,-73.9981307,105,4.0,2023-02-26 00:33:44.505771
xrPPBfLxWbSFkefTU7qk7g,Mad Morton,American,"'47 7th Ave S New York, NY 10014'",40.731365,-74.003888,59,4.0,2023-02-26 00:33:44.505783
FCqKzOUM6DAxjU_xkXdhzg,Royale,American,"'157 Ave C New York, NY 10009'",40.7258174842573,-73.9778455564146,533,4.0,2023-02-26 00:33:44.505795
5HthKwqIfsLdS2yIb3k-cA,The Chelsea House,American,"'235 9th Ave New York, NY 10001'",40.74751,-74.00081,92,3.0,2023-02-26 00:33:44.505807
vkQSMwAf5yqDw9HfEQYgzw,The Flower Shop,American,"'107 Eldridge St New York, NY 10002'",40.71807,-73.99213,157,4.0,2023-02-26 00:33:44.505819
8wMJdpw2R_4VfS55itB_gQ,Sweetwater Restaurant,American,"'105 N 6th St Brooklyn, NY 11249'",40.7184736,-73.9600178,456,4.0,2023-02-26 00:33:44.505831
qILVb2tOV7gjNW1F0X5rlg,Eddie's on 2nd,American,"'975 2nd Ave New York, NY 10022'",40.755995,-73.968068,2,3.5,2023-02-26 00:33:44.505843
k2sHdf6WeY22pK3hs6mtqA,Legasea Bar & Grill,American,"'485 7th Ave New York, NY 10018'",40.75245723977984,-73.98936677488305,345,4.0,2023-02-26 00:33:44.505855
nm5rcWNmfevNXLNQAITi5w,Clinton Hall - FiDi,American,"'90 Washington St New York, NY 10006'",40.70803,-74.014869,758,3.5,2023-02-26 00:33:44.505868
kRuWQS_e9G87fCqelpMEFA,East End Bar & Grill,American,"'1672 3rd Ave New York, NY 10128'",40.7837756217058,-73.95061194907782,227,4.0,2023-02-26 00:33:44.505880
jEkqVhK6lSfTR6Hw564CDw,Farm to Burger,American,"'310 West 40th St New York, NY 10018'",40.75616,-73.99171,60,4.0,2023-02-26 00:33:44.505893
G5YZ7UcqCEYtezOxEETZjQ,Gage and Tollner,American,"'372 Fulton St Brooklyn, NY 11201'",40.691328,-73.987861,162,4.0,2023-02-26 00:33:44.505904
TL-z5M9VAwEmPRPRCK7Tkw,American Bar,American,"'33 Greenwich Ave New York, NY 10014'",40.734899,-74.00034,129,3.5,2023-02-26 00:33:44.505916
QKiVXF-Y1IK_NkRfvtY4sQ,One Star,American,"'147 W 24th St New York, NY 10011'",40.7445145622588,-73.9940418298492,180,4.5,2023-02-26 00:33:44.505929
yTng6X-YW3_hKMNzcdSHyw,Turntable Chicken Rock,American,"'290 5th Ave New York, NY 10001'",40.74635,-73.98655,76,4.0,2023-02-26 00:33:44.505941
6ycMkuiDwmvJKYbSP-24Cg,Good Dish,American,"'2 W 58th St New York, NY 10019'",40.7637465745211,-73.9738212525845,2,5.0,2023-02-26 00:33:44.505953
TtGdKu-qGVvFttp-RcdYwg,The Harold,American,"'1271 Broadway New York, NY 10001'",40.7483140920034,-73.9884801920307,548,3.5,2023-02-26 00:33:44.505966
J8umpkNXrswbTXqLl9HteQ,Strangeways,American,"'302 Metropolitan Ave Brooklyn, NY 11211'",40.714415,-73.957989,73,4.0,2023-02-26 00:33:44.505978
H26qMBb0OFNn2xmSTM1Phw,Kings of Kobe,American,"'650 W 42nd St New York, NY 10036'",40.761172,-74.000307,404,4.5,2023-02-26 00:33:44.505990
Zabkjf2HIT-ZAPmgMF3Lvw,Jack's Wife Freda,American,"'116 8th Ave New York, NY 10011'",40.74091,-74.00146,334,4.0,2023-02-26 00:33:44.506001
BPo5XByMdNiXK_i--gqiRA,Duomo51,American,"'25 W 51st St Fl 7 New York, NY 10019'",40.759979,-73.97824,14,4.5,2023-02-26 00:33:44.506013
h37t9rA06Sr4EetJjKrfzw,Don Angie,American,"'103 Greenwich Ave New York, NY 10014'",40.73778,-74.00197,656,4.5,2023-02-26 00:33:44.506025
W0sXHSSpkiMEDJiBmSLNYQ,Trestle,American,"'34-02 Broadway Astoria, NY 11106'",40.7606154,-73.9229562,514,4.5,2023-02-26 00:33:44.506037
Gfo-8z_CMOpHZVhX-HKD0g,Vanguard Wine Bar,American,"'189 Amsterdam Ave New York, NY 10023'",40.77643,-73.983,196,4.0,2023-02-26 00:33:44.506048
qOp4T7UxfL6MgO41dN3Qlg,Whitmans,American,"'406 E 9th St New York, NY 10009'",40.727942,-73.984469,671,4.0,2023-02-26 00:33:44.506060
DEp-9JVnKN7eTb9A_mUlfA,Zou Zou’s,American,"'385 9th Ave Ste 85 New York, NY 10001'",40.752941113750204,-73.99872428597398,199,4.0,2023-02-26 00:33:44.506073
XzxlmC5W37klZXzSHrwOtA,Carnegie John's,American,"'56th St & 7th Ave New York, NY 10011'",40.7648470396513,-73.9805518728638,90,4.5,2023-02-26 00:33:44.506088
1hScmfYV42XshcprL79MAQ,Peter Dillon's,American,"'130 E 40th St New York, NY 10016'",40.749947565026,-73.976572493217,220,4.0,2023-02-26 00:33:44.506101
7APB7le8Lsutl-foBhPSGQ,The Starlight,American,"'596 Grand St Brooklyn, NY 11211'",40.710975,-73.948059,35,4.0,2023-02-26 00:33:44.506113
c1kKAH9XMPNeaBhvnIP0FQ,Trinity Place,American,"'115 Broadway New York, NY 10006'",40.708865,-74.01117,407,4.0,2023-02-26 00:33:44.506180
EKk-W0musmo4z1qnQQ5XgA,The Local Bar and Cafe,American,"'13-02 44th Ave Long Island City, NY 11101'",40.7495622,-73.9477008,86,4.5,2023-02-26 00:33:44.506195
2RbBg1CIxBZAc2MQPdxkcA,Lillie's Victorian Establishment,American,"'13 E 17th St New York, NY 10003'",40.737661,-73.991113,1163,3.5,2023-02-26 00:33:44.506208
DpZBA0-f7Um9lvnp1zZM2A,Earl's Beer & Cheese,American,"'1259 Park Ave New York, NY 10029'",40.78729,-73.95152,623,4.5,2023-02-26 00:33:44.506220
pYEyLT06ngEHlOtXlP64bg,Megan's,American,"'7 W 45th St New York, NY 10036'",40.7558,-73.98014,118,4.5,2023-02-26 00:33:44.506232
KgpOYAG-r_eDsQXFXt0nnQ,Balthazar,American,"'80 Spring St New York, NY 10012'",40.7226892950401,-73.9982149184027,3514,4.0,2023-02-26 00:33:44.506244
fU8gJtLz1r6oQ94l1kS5Ag,Playwright Irish Pub,American,"'27 W 35th St New York, NY 10001'",40.749885559082,-73.9853439331055,556,4.0,2023-02-26 00:33:44.506257
60_ONUWGij1TbvDHSEcOpQ,P.J. Clarke's,American,"'44 W 63rd St Lincoln Square New York, NY 10023'",40.7713765,-73.9824758,921,3.0,2023-02-26 00:33:44.506270
moaPtBNbQ5VNu2Z0ilCVGQ,Walter's,American,"'166 DeKalb Ave Brooklyn, NY 11217'",40.6894111633301,-73.973258972168,614,4.0,2023-02-26 00:33:44.506283
TGP5gbAgml0IDRLGCpFnCw,PMF Pardon My French,American,"'103 Ave B New York, NY 10009'",40.72473,-73.98115,1105,4.0,2023-02-26 00:33:45.567828
nkT08Tewf6TLaysiuiF8Ow,Pig n Whistle,American,"'202 W 36th St New York, NY 10018'",40.7523995,-73.9901114,228,3.5,2023-02-26 00:33:45.567853
Jy0nQ1uI8KPvTv8nBZGdMg,Wildair,American,"'142 Orchard St New York, NY 10002'",40.7197229753629,-73.98919771717,223,4.0,2023-02-26 00:33:45.567866
JOvcJqD5eCFrGjFa6k7vpQ,Zia Maria - Chelsea,American,"'318 W 23rd St New York, NY 10011'",40.7454863,-73.9993392,306,4.0,2023-02-26 00:33:45.567878
JNkK9xp-hTWxsLrboPWC3Q,The Perfect Pint,American,"'123 W 45th St New York, NY 10036'",40.7574091835053,-73.9837408764447,433,4.0,2023-02-26 00:33:45.567889
f5csvsEkOEdBWLeBOdZcLg,Beer Culture,American,"'328 W 45th St New York, NY 10036'",40.7596004712907,-73.9897146794391,383,4.5,2023-02-26 00:33:45.567900
3Gz07E5YJjDTJPSuzsAStQ,Ocean Prime,American,"'123 W 52nd St New York, NY 10019'",40.7617438,-73.9805565,758,4.5,2023-02-26 00:33:45.567911
16ZnHpuaaBt92XWeJHCC5A,Olio e Più,American,"'3 Greenwich Ave New York, NY 10014'",40.733798036104304,-73.99977392649927,4041,4.5,2023-02-26 00:33:45.567922
ww2d9z8A-fg48_h1rli5Bw,Forty Carrots,American,"'1000 3rd Ave New York, NY 10022'",40.7620186809727,-73.9673249102158,426,4.0,2023-02-26 00:33:45.567934
XkQayHGmVaHmgucEyTkYKw,The Dawson NYC ,American,"'23 W 45th St New York, NY 10036'",40.75609650662279,-73.9805131,44,4.5,2023-02-26 00:33:45.567945
FaR-Kv-0ZzgcqFW1sCnacw,Citizens Of Chelsea,American,"'401 W 25th St New York, NY 10001'",40.748099827409895,-74.000569,978,4.0,2023-02-26 00:33:45.567956
OXLg6oj1OA8YG1XG6WrwYQ,Slattery's Midtown Pub,American,"'8 E 36th St New York, NY 10016'",40.749215,-73.983023,304,4.0,2023-02-26 00:33:45.567966
iq9_CMtUT1SwGcEL8fSDNQ,R Lounge at Two Times Square,American,"'Two Times Square, 714 Seventh Avenue at W. 48th Street New York, NY 10036'",40.759683705851,-73.9845943450927,362,4.0,2023-02-26 00:33:45.567977
q0hMNf-YhfDMFQyUQdsIJg,R40,American,"'47-16 Vernon Blvd Long Island City, NY 11101'",40.74501,-73.95363,188,4.5,2023-02-26 00:33:45.567989
ohLIPmzTysowInbte9XhMw,The Malt House,American,"'9 Maiden Ln New York, NY 10038'",40.709659,-74.009262,605,4.0,2023-02-26 00:33:45.567999
WqfWUXT66Q6SaoT9x2adzw,Porchlight,American,"'271 11th Ave New York, NY 10001'",40.7518044,-74.0050735,257,3.5,2023-02-26 00:33:45.568009
wve8fP5lc3jyfhMI7uu4yw,The Mermaid Inn - Chelsea,American,"'227 10th Ave New York, NY 10011'",40.74813167,-74.00410833,81,4.5,2023-02-26 00:33:45.568019
VeC-S9tr5AKz9Y4Bhd0Wrw,City Winery New York City,American,"'25 11th Ave Hudson River Park New York, NY 10011'",40.74315589187747,-74.00921965479432,190,3.0,2023-02-26 00:33:45.568030
Maks_EfVcTOe20TnGQy_MQ,The Capital Grille,American,"'120 W 51st St New York, NY 10020'",40.7607390928484,-73.9813780866211,845,4.0,2023-02-26 00:33:45.568042
Rgm8BwcoqfIVSl2QSEOhbQ,Craft,American,"'43 E 19th St New York, NY 10003'",40.73818,-73.98866,1071,4.0,2023-02-26 00:33:45.568052
BxNs9d8rEW3Tls-nVdmIgA,Reichenbach Hall,American,"'5 W 37th St New York, NY 10018'",40.7508,-73.98401,830,4.0,2023-02-26 00:33:45.568061
OFfZUS-nu6NDnsWe1B2bUQ,Tonchin,American,"'13 W 36th St New York, NY 10018'",40.7502727,-73.9844951,1818,4.5,2023-02-26 00:33:45.568071
vJpfMVBybyEF8p_qXWs0ug,Sarabeth's West,American,"'423 Amsterdam Ave New York, NY 10024'",40.78388,-73.97743,1040,3.5,2023-02-26 00:33:45.568081
ypqK8DWM8Bcs43YveSJnNw,Manhatta,American,"'28 Liberty St Fl 60 New York, NY 10005'",40.70800627689857,-74.00888226517013,570,4.5,2023-02-26 00:33:45.568092
f6XJQF2a5e6Z13eGclaNGA,Walter's Cottage,American,"'500 W 43rd St New York, NY 10036'",40.7601257142679,-73.9953393915812,68,4.5,2023-02-26 00:33:45.568103
wR9YCk6x6aWyAffKmQWeuA,Nudibranch,American,"'125 1st Ave New York, NY 10003'",40.7274103161425,-73.98568022245786,37,4.5,2023-02-26 00:33:45.568114
mp7YQdBWIHqmJoZlr-K32g,Blackwells Pub And Restaurant,American,"'150 E 47th St New York, NY 10017'",40.7541938,-73.9730946,117,4.0,2023-02-26 00:33:45.568124
ViAb_r1fK0GakK7b9jajig,The View at The Battery,American,"'1 Battery Park New York, NY 10004'",40.70149227783108,-74.01507023377017,38,4.0,2023-02-26 00:33:45.568135
9JGdwVMF7MW452eGmCpnDw,On The Rocks,American,"'696 10th Ave New York, NY 10019'",40.76373,-73.99212,290,4.0,2023-02-26 00:33:45.568145
bHattTQoloZeWwLvUTkRgQ,Vinyl Steakhouse,American,"'35 W 19th St New York, NY 10011'",40.74004396634562,-73.9930878,60,5.0,2023-02-26 00:33:45.568155
nvTE9vtXCoYvF9-l6PZMVw,Uva Next Door,American,"'1484 2nd Ave New York, NY 10075'",40.77223189920225,-73.95566751924939,70,4.0,2023-02-26 00:33:45.568166
K9_vumaLO80LXgoPNJJvRQ,The Terrace and Outdoor Gardens,American,"'701 7th Ave New York, NY 10036'",40.75923,-73.9841,144,4.0,2023-02-26 00:33:45.568176
5ZWX85Le2vNrtAw5s9lHdQ,Halsey's,American,"'3095 33rd St Astoria, NY 11102'",40.763732,-73.9215625,146,4.5,2023-02-26 00:33:45.568186
VgIiCZoUnujSMZATByk77Q,The Meatball Shop - Hell's Kitchen,American,"'798 9th Ave New York, NY 10019'",40.7651804928198,-73.9874866666706,493,4.0,2023-02-26 00:33:45.568196
e213aUxlMxh2F_vpTa-zjA,Biddy's Pub,American,"'301 E 91st St New York, NY 10128'",40.78102,-73.94909,111,4.5,2023-02-26 00:33:45.568207
F8RLZFoTxOO_GBPJNjz3kA,Mark's Off Madison,American,"'41 Madison Ave Ground Level New York, NY 10010'",40.742325,-73.986271,129,4.0,2023-02-26 00:33:45.568216
zzJA5P32V9MIHIMBIyasJw,Dante West Village,American,"'551 Hudson St New York, NY 10014'",40.735202,-74.006251,182,4.0,2023-02-26 00:33:45.568227
OwDRIugcA4LkUuTRqpJsog,Naked Dog,American,"'47 Java St Brooklyn, NY 11222'",40.7312720665479,-73.9593493647979,272,4.5,2023-02-26 00:33:45.568237
RYqRLtlXnCLCWoYq3rbwug,The Copper Still,American,"'151 2nd Ave New York, NY 10003'",40.72957,-73.98719,197,4.0,2023-02-26 00:33:45.568247
13_1t_3MtLn-Y5ZBKHrmww,Louie's Chicken,American,"'1026 2nd Ave New York, NY 10022'",40.757416,-73.966329,120,4.5,2023-02-26 00:33:45.568257
4Objcs7HXSGuzpb0SOa-Jw,Blue Hill,American,"'75 Washington Pl New York, NY 10011'",40.73204650000005,-73.99966984110456,1067,4.5,2023-02-26 00:33:45.568268
R7EGjHWw0tNheY6-ahH8fQ,Tuome,American,"'536 E 5th St New York, NY 10009'",40.72412482724,-73.9828906263924,645,4.5,2023-02-26 00:33:45.568278
4YeKYQoZHCx2xkbjmNhMbA,Burger One,American,"'1150 Lexington Ave New York, NY 10075'",40.7752780616283,-73.9587344974279,210,4.0,2023-02-26 00:33:45.568289
xxE4sKeYJAuHdNm7WZlVOg,Banc Cafe,American,"'431 3rd Ave New York, NY 10016'",40.7432632446289,-73.9795150756836,694,4.0,2023-02-26 00:33:45.568300
NqwwyMMXIS-JnwdDQBQT9A,Bazár Tapas Bar & Restaurant,American,"'31 W 26th St New York, NY 10010'",40.744449,-73.990068,728,4.0,2023-02-26 00:33:45.568310
iPc-zPgcpgeSo76xl5Jbpw,The Maze,American,"'32 W 32nd St Fl 3 New York, NY 10001'",40.747846,-73.9872499,677,4.0,2023-02-26 00:33:45.568368
3VUzihBSmoruWjsv5lng9Q,Figaro,American,"'184 Bleecker St New York, NY 10012'",40.729,-74.00108,46,4.0,2023-02-26 00:33:45.568381
cQxtisUT6TgEGSN7gpnTDg,Good Enough to Eat,American,"'520 Columbus Ave New York, NY 10024'",40.7859436042416,-73.9727859590175,1565,3.5,2023-02-26 00:33:45.568392
3kqGCsIwLwhzWvgyFK6yow,Judy Z’s Sports Tavern & Kitchen,American,"'1 7th Ave S New York, NY 10014'",40.729714,-74.004792,53,4.5,2023-02-26 00:33:45.568402
56nGFQ5PVuGErwcAR34QAw,Meadowsweet,American,"'149 Broadway Brooklyn, NY 11211'",40.7103995,-73.9632384,478,4.0,2023-02-26 00:33:45.568414
3kqGCsIwLwhzWvgyFK6yow,Judy Z’s Sports Tavern & Kitchen,American,"'1 7th Ave S New York, NY 10014'",40.729714,-74.004792,53,4.5,2023-02-26 00:33:46.671564
KXD44wWmrGf7mzyyr0bikw,P.S. Kitchen,American,"'246 W 48th St New York, NY 10036'",40.760706,-73.986627,665,4.5,2023-02-26 00:33:46.671595
fanlKZzN-fI9LywqQD6EHg,Broadstone Bar & Kitchen,American,"'88 Broad St New York, NY 10004'",40.70411,-74.01186,341,4.0,2023-02-26 00:33:46.671610
HkUKhAMutvnsmCV0eNjwSg,O'Toole's Way,American,"'518 W 30th St New York, NY 10001'",40.7523993,-74.0023953,6,4.5,2023-02-26 00:33:46.671623
8JDwcklaawqYprHg0c9aIA,The Brooklyn Tree,American,"'188 Montrose Ave Brooklyn, NY 11206'",40.70734,-73.94186,207,4.5,2023-02-26 00:33:46.671636
r-izNItUH4ugnFodUOZX2A,International Wings Factory,American,"'1762 1st Ave New York, NY 10128'",40.7801834538692,-73.9467542692273,489,4.5,2023-02-26 00:33:46.671650
xQ445GaWVN5Aa3sFX9OoIg,Buvette,American,"'42 Grove St New York, NY 10014'",40.732704,-74.00434640955953,2084,4.0,2023-02-26 00:33:46.671664
MOwB9YYd-Ko6nVgSB-ltQw,Briciola,American,"'370 W 51st St New York, NY 10019'",40.7637997047278,-73.9880919456482,982,4.0,2023-02-26 00:33:46.671677
1JE0wPwtsY7hqbJLbu6FbQ,The Five Lamps,American,"'1586 York Ave New York, NY 10028'",40.77425,-73.94812,60,4.5,2023-02-26 00:33:46.671690
sFxmE2Mq932n6CiXT7Z8ow,5th & Mad,American,"'7 E 36th St New York, NY 10016'",40.74962,-73.98315,250,3.5,2023-02-26 00:33:46.671702
v4d2TBqxMmNzWNvShkvRrA,FREEHOLD,American,"'45 S 3rd St Brooklyn, NY 11249'",40.7136054,-73.965905,581,3.5,2023-02-26 00:33:46.671714
NdvmQ8VoLUIZyFpApZOXUA,Allswell,American,"'124 Bedford Ave Brooklyn, NY 11211'",40.71967,-73.955996,421,3.5,2023-02-26 00:33:46.671725
Ur9wsKwGEDG2nT8t3jv8Ag,The Gem Saloon,American,"'375 3rd Ave New York, NY 10016'",40.74138,-73.98107,268,4.0,2023-02-26 00:33:46.671737
OmVjYfqXQ1VmA4gyZ1euWg,Stout NYC,American,"'109 W 39th St New York, NY 10018'",40.7533433,-73.986043,40,4.0,2023-02-26 00:33:46.671749
zOmgO8Di9Ui2bQHqSarUKg,John's of Times Square,American,"'260 W 44th St New York, NY 10036'",40.75823,-73.98836,2376,4.0,2023-02-26 00:33:46.671761
bSE1Wnh6tWk9hkzkYVLaJw,DIG,American,"'1407 Broadway New York, NY 10018'",40.753246,-73.9878778,87,4.0,2023-02-26 00:33:46.671773
C8K3kTQ2NX5mm4jzQBRVUg,Dive 75,American,"'101 W 75th St New York, NY 10023'",40.7796086990678,-73.9776904358861,294,4.0,2023-02-26 00:33:46.671785
9fydXI0fj2s-EmlF7vm8Og,Clay,American,"'553 Manhattan Ave New York, NY 10027'",40.8094002234406,-73.9536950700793,182,4.0,2023-02-26 00:33:46.671798
-_4i_FQ1Tt_aMU904O82Ow,Crompton Ale House,American,"'159 W 26th St New York, NY 10001'",40.7459087,-73.9937093,247,4.0,2023-02-26 00:33:46.671810
WqjqHMozyW42XLTtLnKGag,La Pulperia Hell's Kitchen,American,"'623 9th Ave New York, NY 10036'",40.7599217,-73.991841,870,4.0,2023-02-26 00:33:46.671822
NVp1S29NLR573Lc4ZvICKw,Forest Hills Station House,American,"'106-11 71st Ave Forest Hills, NY 11375'",40.72006328613507,-73.84522352227545,1285,4.0,2023-02-26 00:33:46.671835
7Oq1UdUHUGZGH_QI6N-0LQ,Hearth,American,"'403 East 12th St New York, NY 10009'",40.730006,-73.983225,787,4.0,2023-02-26 00:33:46.671849
OqNmzS2N2I750zYgUC6IgA,Riverpark,American,"'450 E 29th St New York, NY 10016'",40.73927328386238,-73.97345768834332,834,4.0,2023-02-26 00:33:46.671861
2P2yx60T04Te19tkRZE43w,Le Rock,American,"'45 Rockefeller Plz New York, NY 10111'",40.75917649953854,-73.97818621997159,39,4.5,2023-02-26 00:33:46.671874
TNKFb50T0FU9dVyEPvXVgw,BTS - Bagel To Sandwich,American,"'240 W 40th St New York, NY 10018'",40.755247,-73.989578,4,4.0,2023-02-26 00:33:46.671886
aZ9N4cUBTp3nNaWAeoSbzA,DIG,American,"'1297 Lexington Ave New York, NY 10128'",40.78029,-73.95478,206,4.0,2023-02-26 00:33:46.671898
N6XXfG1ZxSeQxwxVZUkvHg,Schnipper's,American,"'570 Lexington Ave New York, NY 10022'",40.75686,-73.97228,375,3.5,2023-02-26 00:33:46.671910
_0WFGjXuenlBixOlbSlGeQ,Crown Shy,American,"'70 Pine St New York, NY 10005'",40.7063449,-74.0076944,506,4.0,2023-02-26 00:33:46.671922
WHQpLvxkCK_BMtF8pIShnQ,Carroll Place,American,"'157 Bleecker St New York, NY 10012'",40.7287,-73.99971,1241,4.0,2023-02-26 00:33:46.671933
7NFnAxUjfiYg8QrGsjMJKw,Amused,American,"'142 W 83rd St New York, NY 10024'",40.785136925978556,-73.97532729714987,30,4.0,2023-02-26 00:33:46.671946
4tixdNsf0Wd07RiZ4na-uA,Katherine,American,"'41 W 35th St New York, NY 10001'",40.75007167415491,-73.98586529766239,49,4.5,2023-02-26 00:33:46.671960
dYm7DXMy1r8kCmKiz1MO8w,Crave Fishbar,American,"'945 2nd Ave New York, NY 10022'",40.755136,-73.968683,835,4.0,2023-02-26 00:33:46.671972
ME0627wYk0ikhX2yf1fN7w,HAVEN Riverfront Restaurant and Bar,American,"'2 Main St Ste G Edgewater, NJ 07020'",40.803426,-73.9907,1169,4.0,2023-02-26 00:33:46.671984
Vs2IM_3Hyhh7FrzagM_9cQ,Mar's,American,"'34-21 34th Ave Astoria, NY 11106'",40.758364,-73.924101,289,4.0,2023-02-26 00:33:46.671996
FzK3krlvA4fBHsuagggaIw,Hi-Life,American,"'477 Amsterdam Ave New York, NY 10024'",40.785573252956,-73.9763537724069,387,4.0,2023-02-26 00:33:46.672009
2Mia4J1QKd247oh2IkuEdg,The Cauldron NYC,American,"'47 Stone St New York, NY 10004'",40.7043756,-74.0105259,338,3.5,2023-02-26 00:33:46.672021
hiTfA7vnxDSLv77nl6UQXQ,St. Anselm,American,"'355 Metropolitan Ave Brooklyn, NY 11211'",40.7143299,-73.95604,939,4.0,2023-02-26 00:33:46.672033
4SN0mwVSzVkFTpb_aH8cgg,La Cava,American,"'939 2nd Ave New York, NY 10022'",40.7548159435015,-73.9688132098044,268,3.5,2023-02-26 00:33:46.672046
ihplCj2HKWR7z-bBKf8Nzw,POST,American,"'217 E 3rd St New York, NY 10009'",40.7225246,-73.9821975,316,4.5,2023-02-26 00:33:46.672058
Y98a2y3r77l7S4wVS4Vqzg,Vegoist,American,"'35-43 37th St Long Island City, NY 11101'",40.75447,-73.92456,282,4.0,2023-02-26 00:33:46.672069
xtfKAP7X36CCZrJm_Ta6Cg,The Consulate,American,"'519 Columbus Ave New York, NY 10024'",40.78586,-73.97242,251,4.0,2023-02-26 00:33:46.672081
4nO6ZJz6Lxu8fsyfOUx1pw,Upper East Café,American,"'1048 3rd Ave New York, NY 10065'",40.7633565,-73.9654055,226,3.5,2023-02-26 00:33:46.672093
Pr-q47vsmM4aoc2t_Sfk8w,Momofuku Noodle Bar - Uptown,American,"'10 Columbus Cir Third Floor New York, NY 10019'",40.76802583631109,-73.9829243,515,4.0,2023-02-26 00:33:46.672106
Fyrw-Vcs9krhRx7pGrPdtQ,Cornerstone Tavern,American,"'961 2nd Ave New York, NY 10022'",40.755612,-73.968301,296,3.5,2023-02-26 00:33:46.672119
NMVRHrkdp68twl4CWo1I5A,Marseille,American,"'630 9th Ave New York, NY 10036'",40.7597589,-73.99142128424079,1107,4.0,2023-02-26 00:33:46.672132
_HxxUvRp-0FMH_RoEzG1TA,Barnacho,American,"'937 2nd Ave New York, NY 10017'",40.75401583517405,-73.96886851277523,316,4.0,2023-02-26 00:33:46.672144
5UxJoqkdYrUEjArx8YITMw,Atlantic Grill,American,"'50 W 65th St New York, NY 10023'",40.77250470436572,-73.98111241370289,627,3.5,2023-02-26 00:33:46.672157
ETgJqJHV7BW6pIr9Ox74sA,Amélie,American,"'22 W 8th St New York, NY 10011'",40.7327,-73.99766,2894,4.5,2023-02-26 00:33:46.672170
CvG5Y99Auw8KWryzV1e1PA,Kyma Hudson Yards,American,"'445 W 35th St New York, NY 10001'",40.75473,-73.99739,92,4.0,2023-02-26 00:33:46.672182
HrdIdeDZBTUdyEdSTPG1zg,Jack's Wife Freda,American,"'50 Carmine St New York, NY 10014'",40.729826,-74.003516,958,4.0,2023-02-26 00:33:46.672193
HrdIdeDZBTUdyEdSTPG1zg,Jack's Wife Freda,American,"'50 Carmine St New York, NY 10014'",40.729826,-74.003516,958,4.0,2023-02-26 00:33:48.235174
3lLBRLbXAIgd1yZgWgnfeg,Dutch Kills,American,"'27-24 Jackson Ave Long Island City, NY 11101'",40.747615,-73.940159,842,4.0,2023-02-26 00:33:48.239033
GpWXEpVyehmKP2WQsD_Y8g,OTB,American,"'141 Broadway Brooklyn, NY 11211'",40.710484,-73.963408,169,4.5,2023-02-26 00:33:48.239067
Hh9glEE_xDYT_pPUsRPXlA,Blend on the Water,American,"'45-40 Center Blvd Long Island City, NY 11109'",40.748216,-73.956973,3741,4.0,2023-02-26 00:33:48.239082
_MAoiaCSPtB-fBXoHms2Qw,International Wings Factory,American,"'765 8th Ave New York, NY 10036'",40.76032,-73.98777,4,4.0,2023-02-26 00:33:48.239097
NcHnZbq06y9llCt6ayf_Jw,Sweet Chick,American,"'46-42 Vernon Blvd Long Island City, NY 11101'",40.74578,-73.95339,411,4.0,2023-02-26 00:33:48.239110
Hp1ZDTeJOP1NrY2aFtROgQ,Woodbines,American,"'47-10 Vernon Blvd Long Island City, NY 11101'",40.745216,-73.95357,363,4.0,2023-02-26 00:33:48.239123
nMyot99PkX5iYCdxHoRJqQ,ARIARI,American,"'119 1st Ave New York, NY 10003'",40.727283504010266,-73.9858313,72,5.0,2023-02-26 00:33:48.239137
W0k5HHTa7IJsR51Nf7fOmA,Times Square Diner,American,"'807 8th Ave New York, NY 10019'",40.7614036889404,-73.9869685269328,1115,4.0,2023-02-26 00:33:48.239152
210LxcDl5dXlYOMlIUmEFQ,Lips - New York,American,"'227 E 56th St New York, NY 10022'",40.75923,-73.96691,767,4.0,2023-02-26 00:33:48.239165
iIkF2u2A3QC8xp6zzQGvzg,Empire Burger House,American,"'147 E 50th St New York, NY 10022'",40.75617,-73.97131,19,4.0,2023-02-26 00:33:48.239178
jW22gmsZjh5hFJsC1qUDOA,The Baroness Bar Burgers + Beer,American,"'47-18 Vernon Blvd Long Island City, NY 11101'",40.74496,-73.95362,480,4.0,2023-02-26 00:33:48.239190
0D4a1adz96Gxnfd0JqwrEg,The Whitby Bar and Restaurant,American,"'18 W 56th St New York, NY 10019'",40.76271,-73.97566,143,4.0,2023-02-26 00:33:48.239203
sBL7J7s4Rnul40-MB0hXbA,Perrine,American,"'2 E 61st Street At Fifth Ave Ground Floor New York City, NY 10065'",40.7653271962541,-73.97199900859833,111,4.0,2023-02-26 00:33:48.239263
EuoHL-sfKlSoLdeYDJZgUA,Deacon Brodie's Tavern,American,"'370 W 46th St New York, NY 10036'",40.7606896,-73.9903717,80,4.5,2023-02-26 00:33:48.239285
BaeUVrAj5f3YF1razW5bow,11 Tigers,American,"'225 Avenue B Fl 2 New York, NY 10009'",40.72908,-73.97815,103,4.0,2023-02-26 00:33:48.239300
siMk2bf7QomxjAY0hD3BFQ,Moran's,American,"'501 Garden St Hoboken, NJ 07030'",40.7425922,-74.0309736,163,4.5,2023-02-26 00:33:48.239314
xlr1KcIeILEZXSRy3OycDw,Clubhouse,American,"'235 W 57th St New York, NY 10019'",40.7666457,-73.9822674,7,5.0,2023-02-26 00:33:48.239327
W3Kh6t5XpXY4r8iu7W4gyA,Contour,American,"'50 Central Park S New York, NY 10019'",40.76525,-73.97604,2,4.0,2023-02-26 00:33:48.239339
Jhx4OoFjXFp0YxqbW0KQog,Butter Midtown,American,"'70 W 45th St New York, NY 10036'",40.7562781,-73.9823303,1143,3.5,2023-02-26 00:33:48.239352
V3xiyKV_xwmRMfNTMKzHvQ,Keg & Lantern Brewing Company,American,"'104 S 4th St Brooklyn, NY 11249'",40.71193265799793,-73.96350681781769,1,5.0,2023-02-26 00:33:48.239366
kMljfja7weqfl_lzspjzHA,Cafe Cluny,American,"'284 W 12th St New York, NY 10014'",40.737385,-74.003966,823,3.5,2023-02-26 00:33:48.239380
NMuZQuK6UU32VlSF6khh0w,Stout NYC,American,"'133 W 33rd St New York, NY 10001'",40.74989,-73.9898,1010,3.5,2023-02-26 00:33:48.239392
w9I5sGHkwOyLe1yFQ0XBeg,Silver Light Tavern,American,"'689 Lorimer St Brooklyn, NY 11211'",40.71747,-73.95005,100,5.0,2023-02-26 00:33:48.239404
YDzygPhlc5fSE552u6hEWw,Gourmet 53,American,"'875 3rd Ave New York, NY 10022'",40.75722,-73.96919,96,4.0,2023-02-26 00:33:48.239417
OLi1M1D3r9DDv8kbfQV5SA,Anything At All,American,"'22 N Loop Rd New York, NY 10044'",40.7562,-73.95504,32,3.5,2023-02-26 00:33:48.239429
LbhYkhIOG5Vq-q9PbLcNnA,Onieals,American,"'343 Park Ave Hoboken, NJ 07030'",40.7416,-74.03224,377,4.0,2023-02-26 00:33:48.239441
BXY0ZV3dNopEU1jphLEQrA,The Highwood,American,"'500 Ave At Port Imperial Weehawken, NJ 07086'",40.77683348001929,-74.0116246417165,205,4.0,2023-02-26 00:33:48.239454
2wQsfQkorp9L03vPEFAZJw,Hudson Clearwater,American,"'447 Hudson St New York, NY 10014'",40.7311,-74.0069,653,4.0,2023-02-26 00:33:48.239467
P07uKcnA9gkk7B6exFtuYg,The Ainsworth - Midtown,American,"'45 E 33rd St New York, NY 10016'",40.7468295,-73.98246,317,3.0,2023-02-26 00:33:48.239479
NRcffNvufYo2Jul0h24_qw,Bryant Park Grill,American,"'25 W 40th St New York, NY 10018'",40.75319,-73.98298,1078,3.5,2023-02-26 00:33:48.239491
hPcNSnzW_oJMAoa7fIWKQw,Jackson Hole Burgers,American,"'232 E 64th St New York, NY 10065'",40.763807,-73.962919,437,3.5,2023-02-26 00:33:48.239504
8xYvp9j7j8RCRQGsiRRujQ,La Bergamote NYC,American,"'177 9th Ave New York, NY 10011'",40.745044,-74.002863,393,4.0,2023-02-26 00:33:48.239516
Zc7Jbuwe3XO-EaVXIh_TYQ,Banter,American,"'169 Sullivan St New York, NY 10012'",40.72787,-74.0010999,632,4.5,2023-02-26 00:33:48.239529
PMp7WlHIXQUnej-Ds1jRfw,Blind Tiger Ale House,American,"'281 Bleecker St New York, NY 10014'",40.731926,-74.003223,928,4.0,2023-02-26 00:33:48.239541
rwDOGNETmfBLiulSdMAl5Q,Burger Village,American,"'40-17 Broadway Astoria, NY 11103'",40.7589,-73.918242,74,4.5,2023-02-26 00:33:48.239553
F-QQCnbsw48dfx4qVf-WoQ,Monk Mcginn's,American,"'57 Murray St New York, NY 10007'",40.71432,-74.00972,128,4.5,2023-02-26 00:33:48.239566
PmMH2PmTSFA4gofjvc1y-A,The Ivory Peacock,American,"'38 W 26th St New York, NY 10010'",40.744316,-73.990739,25,4.0,2023-02-26 00:33:48.239578
HqpG67tbPpOZfKfM60pWcA,Social Drink and Food,American,"'570 10th Ave (42nd & Tenth) YOTEL, Fl 4 New York, NY 10036'",40.759178,-73.995461,93,3.5,2023-02-26 00:33:48.239590
zXCGF0XtqjOv1s4DUHOtqg,Hart's Restaurant,American,"'506 Franklin Ave Brooklyn, NY 11238'",40.68146,-73.95589,116,4.5,2023-02-26 00:33:48.239604
KkAtVVjnMfb1vGlcpzmhgw,Sweet Brooklyn Bar And Grill,American,"'608 Nostrand Ave Brooklyn, NY 11216'",40.6778662988215,-73.9500002190471,500,4.0,2023-02-26 00:33:48.239617
78TCGIG1eHMYdyvMpFdDbQ,Follia,American,"'179 3rd Ave New York, NY 10003'",40.7349243164062,-73.9855880737305,276,4.0,2023-02-26 00:33:48.239631
i38R1KxL99JoG-Ns7FyyGw,12 Chairs,American,"'56 MacDougal St New York, NY 10012'",40.72759,-74.0024,827,4.0,2023-02-26 00:33:48.239644
wQGC93ETmivIlCbxLuAVcA,St. Mazie,American,"'345 Grand St Brooklyn, NY 11211'",40.71252,-73.95587,294,4.0,2023-02-26 00:33:48.239655
9w3zIx0-n7qPLQynU8saHA,AOC East,American,"'1590 First Ave New York, NY 10028'",40.77469,-73.95075,197,4.0,2023-02-26 00:33:48.239667
YKfj-CUjgb9xQ1kN_bhNLg,Forget Me Not,American,"'138 Division St New York, NY 10002'",40.714498871349,-73.9915559401866,207,4.0,2023-02-26 00:33:48.239680
65tcRhhQKAxPafN017WQ0g,Scallywag's Irish Pub & Restaurant,American,"'508 9th Ave New York, NY 10018'",40.756058,-73.99395,292,4.0,2023-02-26 00:33:48.239692
7xxlBDcXm7wwJW5OVD5bFQ,The Queensboro,American,"'80-02 Northern Blvd Jackson Heights, NY 11372'",40.7552154,-73.8870393,338,4.0,2023-02-26 00:33:48.239705
GOEBF8Odq1SPdz4PWJx6PQ,Serafina Italian Restaurant Always,American,"'33 E 61st St New York, NY 10065'",40.764789,-73.969779,391,3.0,2023-02-26 00:33:48.239717
9pMhRYYgV7E9L7pzECtJKA,The Drunken Munkey - UES,American,"'338 E 92nd St New York, NY 10128'",40.78098,-73.94751,1291,4.5,2023-02-26 00:33:48.239730
65tcRhhQKAxPafN017WQ0g,Scallywag's Irish Pub & Restaurant,American,"'508 9th Ave New York, NY 10018'",40.756058,-73.99395,292,4.0,2023-02-26 00:33:50.235374
c3D2ckzacnPtdGIM8tb-_w,B Side Pizza & Wine Bar,American,"'370 W 51st St New York, NY 10019'",40.76388,-73.98821,1275,4.5,2023-02-26 00:33:50.235414
GOEBF8Odq1SPdz4PWJx6PQ,Serafina Italian Restaurant Always,American,"'33 E 61st St New York, NY 10065'",40.764789,-73.969779,391,3.0,2023-02-26 00:33:50.235428
JXsHJfBAKZT0fG8XkA9Kzw,Sweet Science,American,"'135 Graham Ave Brooklyn, NY 11206'",40.7063841819763,-73.9431119710207,666,3.5,2023-02-26 00:33:50.235442
VACzezINx10UlfXjdz0Iow,Resolution 39,American,"'228 W 39th St New York, NY 10018'",40.754416,-73.989586,6,5.0,2023-02-26 00:33:50.235454
f12cJ70sc75C2ON50-fYqw,Anytime Billiards,American,"'112 W 30th 1FL Fl 1 New York, NY 10001'",40.74747,-73.99033,66,4.5,2023-02-26 00:33:50.235465
HwNGdMK77O-EzKLpmwT7yw,Kumi - New York,American,"'120 W 57th St New York, NY 10019'",40.764565,-73.9784806,38,4.0,2023-02-26 00:33:50.235583
2iW5TU4W0BN8LYBzVmO9Qw,The Honey Well,American,"'3604 Broadway New York, NY 10031'",40.82849,-73.94862,367,4.5,2023-02-26 00:33:50.235598
EYH4FiA2phvYg73Jjw1KSA,Friend of A Farmer,American,"'77 Irving Pl New York, NY 10003'",40.73695,-73.98677,1402,3.5,2023-02-26 00:33:50.235609
1aD88qNRb08LGBkl84GQTA,Little Collins,American,"'708 3rd Ave New York, NY 10017'",40.75233,-73.97353,1063,4.5,2023-02-26 00:33:50.235620
xR2Yeb_Nh0MOAiUIaqaVOg,Tavern 157,American,"'157-12 Northern Blvd Flushing, NY 11354'",40.7634836392041,-73.807817278102,503,4.5,2023-02-26 00:33:50.235633
jTfTgoy4B1yonzEFawhRxg,White Castle,American,"'539 8th Ave New York, NY 10018'",40.75429632932796,-73.99211961505698,9,4.0,2023-02-26 00:33:50.235646
lGe2NRqJbEhf1dA0zo-qBw,Hudson Station,American,"'440 9th Ave SE 35th St New York, NY 10001'",40.75383346948705,-73.9957582834671,280,3.0,2023-02-26 00:33:50.235658
lGR8ipy2bV6oO-cfrTIa0Q,Gab’s,American,"'76 Carmine St New York, NY 10014'",40.7295392,-74.0046474,6,3.5,2023-02-26 00:33:50.235671
NwrqmFGO-utVOG-eeDDuXg,Penelope,American,"'159 Lexington Ave New York, NY 10016'",40.74371,-73.98152,2324,3.5,2023-02-26 00:33:50.235683
kSI-wgcYYfpcHcgDrbKIfg,Sugar Freak,American,"'37-11 30th Ave Astoria, NY 11103'",40.7646298318085,-73.9159499108791,1987,4.0,2023-02-26 00:33:50.235695
AawLwOYZwMf_9wkShExfuw,Sanfords Astoria,American,"'30-13 Broadway Astoria, NY 11106'",40.7623,-73.92555,1092,4.0,2023-02-26 00:33:50.235707
zV1_EFMN4VY7Rxpv7P-ajg,Sunflower - Gramercy,American,"'335 3rd Ave New York, NY 10010'",40.7399,-73.98219,317,4.5,2023-02-26 00:33:50.235717
f-sL-VgQzte0StcqI3KkJw,West Bank Cafe,American,"'407 W 42nd St New York, NY 10036'",40.7588229,-73.9932283,272,4.0,2023-02-26 00:33:50.235728
Z-PSo5FDabBZFfep5l2xRg,Gus’s Chop House,American,"'215 Union St Brooklyn, NY 11231'",40.68348,-73.99929,17,4.5,2023-02-26 00:33:50.235739
w5B0FmQoEOoeURoFuguh0w,The Brew Inn,American,"'924 Manhattan Ave Brooklyn, NY 11222'",40.731044,-73.954101,179,4.0,2023-02-26 00:33:50.235749
x2ATnp8-hXFhr_XznPYPMw,5 Napkin Burger,American,"'630 9th Ave New York, NY 10036'",40.76018,-73.991093,2319,4.0,2023-02-26 00:33:50.235760
8EBOj5bMglNI-jRIQvf6wg,Cheese Grille,American,"'188 Allen St New York, NY 10002'",40.7219115,-73.9886709,621,4.0,2023-02-26 00:33:50.235771
e5wK3I_THzF4Ce_OgoSCQw,Mokyo,American,"'109 St Marks Pl New York, NY 10009'",40.72714401116084,-73.98395721296154,292,4.5,2023-02-26 00:33:50.235782
QVXLgfB4J2j1BjeSgmoXgw,The Grid at Great Jones Distilling Co,American,"'686 Broadway New York, NY 10012'",40.728,-73.99441,22,4.5,2023-02-26 00:33:50.235792
1TjhL68uTF473c3E-cuLiw,La Bonbonniere,American,"'28 8th Ave New York, NY 10014'",40.737769995088,-74.004336265057,421,4.0,2023-02-26 00:33:50.235804
J4pAppaiXwCkbLOGc4wHww,Raines Law Room,American,"'48 W 17th St New York, NY 10011'",40.73879,-73.99455,1574,4.5,2023-02-26 00:33:50.235814
hQmH1FWXBWaIBD1tEV9_Hg,The Rum House,American,"'228 W 47th St New York, NY 10036'",40.759673,-73.986345,636,4.0,2023-02-26 00:33:50.235825
a4WZUTKn90dOkeY38JHNjQ,Aurora,American,"'70 Grand St Brooklyn, NY 11249'",40.715621,-73.964757,792,4.0,2023-02-26 00:33:50.235835
ZtjF2N3eYOjtnI3cES2fpw,Duke Eatery,American,"'300 Park Ave New York, NY 10022'",40.7569688575924,-73.9750746534424,70,4.0,2023-02-26 00:33:50.235846
F0MuzanyO6YEen8VtP5LOg,Pennsylvania 6 NYC,American,"'132 W 31st St New York, NY 10001'",40.7483655239542,-73.9907944748688,609,4.0,2023-02-26 00:33:50.235857
aDsUZs-esGEJVBFgAatucQ,Terrace Cafe,American,"'11 W 53rd St New York, NY 10019'",40.76146,-73.97736,91,3.5,2023-02-26 00:33:50.235868
SBLoGGk936tFHg0gYSZ-ow,Kent Ale House,American,"'51 Kent Ave Brooklyn, NY 11249'",40.7223281860352,-73.9592514038086,196,4.0,2023-02-26 00:33:50.235879
yc4vsT-Q4Ej1_9hr94DxkQ,Sotto 13,American,"'140 W 13th St New York, NY 10011'",40.7372,-73.99919,1033,4.0,2023-02-26 00:33:50.235890
NPG2jp4C61RJbmbA35p6xA,John Sullivan's,American,"'210 W 35th St New York, NY 10001'",40.7517735073233,-73.9905076101422,266,4.0,2023-02-26 00:33:50.235910
s3jou_L_LVYGkNHiuhjlew,Boucherie West Village,American,"'99 7th Ave S New York, NY 10014'",40.733063,-74.0028772,2204,4.5,2023-02-26 00:33:50.235925
r1cZLBSHYi15TM0BLps_aw,pen'n coop,American,"'601 W 26th St New York, NY 10001'",40.75154,-74.00685,4,4.5,2023-02-26 00:33:50.235936
FJepPR5CYRggxRwAjlqg6A,Bowery Road,American,"'132 4th Ave New York, NY 10003'",40.7333427,-73.9901924,250,4.0,2023-02-26 00:33:50.235947
P2CTp4xyaNCe2AXSiLeOSQ,The Odeon,American,"'145 W Broadway New York, NY 10013'",40.71692,-74.00792,745,4.0,2023-02-26 00:33:50.235958
tuhlWtnjoOn8C6NTUCnbPg,Victor,American,"'285 Nevins St Brooklyn, NY 11217'",40.6795300180332,-73.98681309999999,38,4.0,2023-02-26 00:33:50.235969
L_TG8AAIRmnjj67QRKvgkw,Dylan Murphy's,American,"'1453 3rd Ave New York, NY 10028'",40.7763,-73.95549,255,4.0,2023-02-26 00:33:50.235981
Isda3V_1L9cjkJ2Jiz8dhw,The Bedford,American,"'110 Bedford Ave Brooklyn, NY 11249'",40.720019,-73.9555259,480,3.5,2023-02-26 00:33:50.235992
ji1JaZceF4mh8xUVyHq8zg,Nat's on Bleecker,American,"'170 Bleecker St New York, NY 10012'",40.72878,-74.00061,22,4.0,2023-02-26 00:33:50.236004
kmcgUxWhwlbmC-FAMTEF2g,Cafe d’Alsace,American,"'1703 2nd Ave New York, NY 10128'",40.77942,-73.95084,1339,4.0,2023-02-26 00:33:50.236019
R-biStUvl2zuhIQFk40GsQ,OCabanon,American,"'245 W 29th St New York, NY 10001'",40.7486725,-73.9945145,446,4.0,2023-02-26 00:33:50.236032
L3L6xDdrS8c67BLZROg79A,Smith & Wollensky,American,"'797 3rd Ave New York, NY 10022'",40.75526,-73.9709472466553,1696,3.5,2023-02-26 00:33:50.236044
xP4GMFs8WgtFvoMJKh47DQ,Breakfast Burrito Floozy,American,"'122 E 57th St New York, NY 10022'",40.760969,-73.969807,1,5.0,2023-02-26 00:33:50.236057
gTCqX_Xw087KP608dZTfjw,The Chelsea Bell,American,"'316 8th Ave New York, NY 10001'",40.7468909665128,-73.9970784187517,167,3.5,2023-02-26 00:33:50.236071
tRZcEKBNNwiZw1_Px_POag,Smith & Mills,American,"'71 N Moore St New York, NY 10013'",40.72018,-74.00991,301,4.0,2023-02-26 00:33:50.236087
GCAQmtRdNhqVit5KGJ46Qg,Estela,American,"'47 E Houston St New York, NY 10012'",40.724759,-73.994728,609,4.0,2023-02-26 00:33:50.236103
844H9r0tRQZmxiEtjeTW0A,The Bar Room at The Modern,American,"'9 W 53rd St New York, NY 10019'",40.760943924003364,-73.97682308486881,547,4.0,2023-02-26 00:33:51.806667
GXh9YpX4v8Wemrq-SPDPhA,e's BAR,American,"'511 Amsterdam Ave New York, NY 10024'",40.786692073145,-73.9755653589964,387,4.0,2023-02-26 00:33:51.806694
VBpUtjSy7xzAoTqNwtZyAQ,Library Bar,American,"'811 7th Ave New York, NY 10019'",40.76262851973968,-73.98160938173532,4,3.0,2023-02-26 00:33:51.806708
izPtlTgNT9WnibeRrXmvsQ,Hill and Bay,American,"'581 2nd Ave New York, NY 10016'",40.743507,-73.977165,362,3.5,2023-02-26 00:33:51.806720
HToo0IzHnorOdrfCLVk7kQ,Jacx&Co,American,"'28-17 Jackson Ave Long Island City, NY 11101'",40.748601,-73.938545,57,4.0,2023-02-26 00:33:51.806730
8VJ_bkaTbiL7QwaY7pd0OQ,Oxford Cafe,American,"'119 E 60th St New York, NY 10022'",40.76329,-73.96846,2,4.0,2023-02-26 00:33:51.806740
zWem2SAbFc7lIYR2y9DE0g,Harlem Public,American,"'3612 Broadway New York, NY 10031'",40.828717774457,-73.9484412254424,1154,4.0,2023-02-26 00:33:51.806751
2R3fEbmo-FR1ciek9cReXA,Palace Restaurant,American,"'122 E 57th St New York, NY 10022'",40.760908,-73.969842,191,3.5,2023-02-26 00:33:51.806762
Q02uPdw8j8yDIVSPyJATjA,Old Town Bar & Restaurant,American,"'45 E 18th St New York, NY 10003'",40.737594,-73.989166,414,3.5,2023-02-26 00:33:51.806772
lHGQM__w1x5Dxiq3aRPCTQ,White Horse Tavern - Financial District,American,"'25 Bridge St New York, NY 10004'",40.70372,-74.01237,408,4.0,2023-02-26 00:33:51.806782
oopgHvduXbtgwNRmybEhgQ,Sons of Essex,American,"'133 Essex St New York, NY 10002'",40.720315,-73.987774,1323,4.0,2023-02-26 00:33:51.806793
UngCZMRpPmmyGJvuVrTswg,Whiskey Trader,American,"'71 W 55th St New York, NY 10019'",40.76288,-73.97752,241,3.5,2023-02-26 00:33:51.806803
6qcydPo5eTSB4XHyyZDvkA,Bareburger - Hell's Kitchen,American,"'366 W 46th St New York, NY 10036'",40.760558,-73.990357,1016,4.0,2023-02-26 00:33:51.806844
iNiq1vgWpEa48jlPAce8wQ,The Thirsty Koala,American,"'35-12 Ditmars Blvd Astoria, NY 11105'",40.774416,-73.908739,1216,4.5,2023-02-26 00:33:51.806857
syNFp2qrQtXfH4bskQVgaA,Portale,American,"'126 W 18th St New York, NY 10011'",40.74023348892918,-73.9962661,153,4.5,2023-02-26 00:33:51.806868
h0pRCiJDrCN7tm3VX5tILQ,CHILI,American,"'13 E 37th St New York, NY 10016'",40.75002,-73.98215,582,4.5,2023-02-26 00:33:51.806879
kB-lmHs7yNwLIlQyp0kMmQ,Quality Meats,American,"'57 W 58th St New York, NY 10019'",40.764958,-73.976206,2241,4.0,2023-02-26 00:33:51.806889
Qg3J6XPrD22CEFAqEEhWpw,The Pony Bar,American,"'1444 1st Ave New York, NY 10021'",40.76974,-73.95425,375,4.0,2023-02-26 00:33:51.806899
UD9ZT_93_nxU0UNEyISJig,Parker's at Thompson Central Park,American,"'119 W 56th St New York, NY 10019'",40.7641939,-73.9785,8,4.5,2023-02-26 00:33:51.806909
nsAU6F2vmdnphmfIa_RuWg,Mable's Smokehouse & Banquet Hall,American,"'44 Berry St Brooklyn, NY 11249'",40.7211890204726,-73.9570004492998,976,4.0,2023-02-26 00:33:51.806920
TfYOx6Ql-wWdjGpgVaNcpQ,De Novo Edgewater,American,"'1257 River Rd Edgewater, NJ 07020'",40.8268814086914,-73.973518371582,300,4.0,2023-02-26 00:33:51.806932
zLNOCv3hmzPNO8pchYdBpw,Joe Jr.,American,"'167 3rd Ave New York, NY 10003'",40.73468,-73.98596,434,4.0,2023-02-26 00:33:51.806942
I8GbxMc0TVH5zdgkvPTJBA,Rivercrest,American,"'33-15 Ditmars Blvd Astoria, NY 11105'",40.7751779476155,-73.9092504946148,79,4.0,2023-02-26 00:33:51.806952
goKn7tKTIqpNPM_jR2yRCg,Leyla,American,"'108 W 74th St New York, NY 10023'",40.77882,-73.97834,217,4.0,2023-02-26 00:33:51.806962
OW7anK5VguGTo1zLtdBTXw,Dig,American,"'709 Lexington Ave New York, NY 10022'",40.76116,-73.96879,48,4.0,2023-02-26 00:33:51.806972
9QK3vhI04Q8ylqk49C3JcQ,Rule of Thirds,American,"'171 Banker St Brooklyn, NY 11222'",40.7246328,-73.9551096,440,4.0,2023-02-26 00:33:51.806981
W0c-FS060axwxHcCtJwuRw,Broadway Restaurant,American,"'2664 Broadway New York, NY 10025'",40.79791,-73.96908,193,4.0,2023-02-26 00:33:51.806991
ruYQv7KVDvmWSF82sM3ZhQ,Milk Burger,American,"'321 E Houston St New York, NY 10002'",40.72095,-73.9829,9,4.5,2023-02-26 00:33:51.807001
z1OgXX3L9Ipl2mu-Hf4ADw,ViV,American,"'717 9th Ave New York, NY 10019'",40.76277,-73.98969,1209,4.0,2023-02-26 00:33:51.807011
iV-gnXSjT7vl71Z9pttVvw,La Bonne Soupe,American,"'48 W 55th St New York, NY 10019'",40.7624,-73.97694,154,4.0,2023-02-26 00:33:51.807020
yOPbrFZ2ZUsyQWsedP6gUg,Amity Hall Uptown,American,"'982 Amsterdam Ave New York, NY 10025'",40.802254309570316,-73.96461705909682,278,4.0,2023-02-26 00:33:51.807031
XQiIGgSjx3wIxvvzOZP9Cw,Chino Grande,American,"'253 Grand St Brooklyn, NY 11211'",40.71350664203596,-73.95855296810493,21,4.5,2023-02-26 00:33:51.807042
pk89jzL1RsE9U0thf_z6tw,Locanda Verde,American,"'377 Greenwich St New York, NY 10013'",40.7198601300801,-74.010039072422,1815,4.0,2023-02-26 00:33:51.807053
MoyxzhaYIsJx-p9IuGGK4w,Stella 34 Trattoria,American,"'151 West 34th St Fl 6 Macy's Herald Square New York, NY 10001'",40.75049486336486,-73.98798861987918,731,3.5,2023-02-26 00:33:51.807065
p5JbHNDAXBJpqcGTsmTMBQ,Mother's Ruin,American,"'18 Spring St New York, NY 10012'",40.72135,-73.99502,503,3.5,2023-02-26 00:33:51.807075
KifkRh0gGD0voBw4FHFCVA,Chirping Chicken,American,"'355 Amsterdam Ave New York, NY 10024'",40.7816,-73.97905,642,3.5,2023-02-26 00:33:51.807113
FHMMwIk0ynfEvVdhMgc0Lw,Captain's Cafe Bar & Grill,American,"'18 E 33th St New York, NY 10016'",40.74727,-73.9841299,85,4.0,2023-02-26 00:33:51.807132
tjnWiyMheQ2o1jTXL8lyXQ,Baker Street Irregulars,American,"'1152 1st Ave New York, NY 10065'",40.762145464720994,-73.95984105909677,243,3.5,2023-02-26 00:33:51.807146
s-b1Mn_Gzkftz2MCjZ3lwg,Turntable LP Bar & Karaoke,American,"'34-36 W 32nd St Fl 5 New York, NY 10001'",40.74769,-73.98735,376,4.5,2023-02-26 00:33:51.807158
tS57VDB7MA81rzOsQkTrmw,Greenwich Street Tavern,American,"'399 Greenwich St New York, NY 10013'",40.720839,-74.0096888,143,4.0,2023-02-26 00:33:51.807169
3BbKR2GURXEXihFrDYqQkg,Elder Greene,American,"'160 Franklin St Brooklyn, NY 11222'",40.730721,-73.957521,69,4.0,2023-02-26 00:33:51.807181
Tt9Mkrgd5Zj_ZJEeU0L7Gg,Bocado Cafe,American,"'1293 Lexington Ave New York, NY 10128'",40.7802514169278,-73.9549089244757,547,3.5,2023-02-26 00:33:51.807192
nVjrffApH3q_PkjmZdqpHg,Mustang Harry's,American,"'352 7th Ave New York, NY 10001'",40.74842667,-73.99296667,422,3.5,2023-02-26 00:33:51.807204
pZWhRtCJvTuwWoavaiCQrA,C as in Charlie,American,"'5 Bleecker St New York, NY 10012'",40.72545,-73.99269,101,4.5,2023-02-26 00:33:51.807214
tuP7STBjszTvKcQLeFMnkw,Nina's Great Burrito Bar,American,"'522 Columbus Ave New York, NY 10024'",40.786026,-73.972724,388,4.0,2023-02-26 00:33:51.807224
gt-0HkY2DC-NscmhOsKOWw,The Hutton,American,"'225 Hutton St Jersey City, NJ 07307'",40.746707841754,-74.0555749833584,378,4.5,2023-02-26 00:33:51.807236
gISZs8okQgFIpd-yz9aC4w,Café Henri,American,"'1010 50th Ave Long Island City, NY 11101'",40.742559,-73.953697,769,4.0,2023-02-26 00:33:51.807246
0p6W9PtbvBkOl7VBmUZciw,Hudson Garden Grill,American,"'2900 Southern Blvd Bronx, NY 10458'",40.86544744270648,-73.88154800211242,197,4.0,2023-02-26 00:33:51.807258
tsiC3VpO-hZEb98Qk3p-DQ,Amy Ruth's,American,"'113 W 116th St New York, NY 10026'",40.80248,-73.95038,2949,4.0,2023-02-26 00:33:51.807269
EbDYMTHB0eZvXSgkplacQA,Ace’s,American,"'197 2nd Ave New York, NY 10003'",40.731387,-73.985988,5,5.0,2023-02-26 00:33:51.807279
hts6au1kcpI9Wq-7shKaiQ,Commerce Inn,American,"'50 Commerce St New York, NY 10014'",40.73139078965174,-74.00569925116993,45,4.0,2023-02-26 00:33:53.379532
0ijJgm5P9BygsuQKV4saNw,Blue Park Kitchen,American,"'70 Pine St New York, NY 10270'",40.7063449,-74.0076944,91,4.5,2023-02-26 00:33:53.379563
6rgmK1O2nN5MviWrPQ3h9Q,MrBeast Burger,American,"'53-02 11th St Long Island City, NY 11101'",40.740221,-73.952686,1,5.0,2023-02-26 00:33:53.379575
oPnevA65o9F6WDWp7nLR2w,Le Burger,American,"'540 E 5th St New York, NY 10009'",40.724032,-73.982726,18,5.0,2023-02-26 00:33:53.379586
DI0PHE6PVTpJF6dvG_d1Wg,Red Hook Tavern,American,"'329 Van Brunt St Brooklyn, NY 11231'",40.67788,-74.01209,126,4.0,2023-02-26 00:33:53.379596
EbDYMTHB0eZvXSgkplacQA,Ace’s,American,"'197 2nd Ave New York, NY 10003'",40.731387,-73.985988,5,5.0,2023-02-26 00:33:53.379607
3KztPt62_BR1EO2_RCRhBQ,Wollensky Grill,American,"'210 E 49th St New York, NY 10017'",40.7547798156738,-73.9707870483398,153,3.5,2023-02-26 00:33:53.379620
qNVN0dsnl4akLNueEoY-Hw,Gem,American,"'116 Forsyth St New York, NY 10002'",40.7190867,-73.9923073,52,4.0,2023-02-26 00:33:53.379630
vscYK65F_MUH8WqACKSdog,The Musket Room,American,"'265 Elizabeth St New York, NY 10012'",40.72392,-73.99378,566,4.0,2023-02-26 00:33:53.379640
4XX-zF8h5Lvrr22_tqU6-Q,The River Café,American,"'1 Water St Brooklyn, NY 11201'",40.703866713051106,-73.99479360219303,1267,4.0,2023-02-26 00:33:53.379653
40c7ax3ILWwIQu3bNhQabw,The Rickey,American,"'210 W 55th St Ste 1 New York City, NY 10019'",40.76436762228229,-73.98177056071637,88,4.0,2023-02-26 00:33:53.379665
NX40H5_4n_zKasDmDHEu3A,Legacy Records,American,"'517 W 38th St New York, NY 10018'",40.7576125,-73.9981842,143,3.5,2023-02-26 00:33:53.379676
g6epuiA0PVw3-Ed33iDmzw,Kaña SoHo Bar,American,"'324 Spring St New York, NY 10013'",40.725869,-74.009477,5,5.0,2023-02-26 00:33:53.379686
35ezIH9BDHLY4XVQrxw6NA,Stout,American,"'60 E 41st St New York, NY 10017'",40.7516115,-73.9788202,254,3.5,2023-02-26 00:33:53.379697
gHwWrFziJ78KGHy4wgviBg,Olde City Cheesesteaks & Brew,American,"'66 Madison Ave New York, NY 10016'",40.74367,-73.98612,21,5.0,2023-02-26 00:33:53.379707
83zDAk03lFXkgImgkLhT9w,Chi Restaurant & Bar,American,"'492 9th Ave New York, NY 10018'",40.75547,-73.99439,42,4.0,2023-02-26 00:33:53.379717
HpxYBu1ARzOGvuUcLJe54g,Giardino 54,American,"'400 1/2 W 54th St New York, NY 10019'",40.7660476,-73.987591,195,4.5,2023-02-26 00:33:53.379727
hrj-JBurGPGwror51rYGOA,Early Edition,American,"'49 W 32nd St New York, NY 10001'",40.74825,-73.98783,10,5.0,2023-02-26 00:33:53.379773
X7HV43qlSM-Y61LgTNBxPw,2nd Floor Bar & Essen,American,"'1442 1st Ave New York, NY 10021'",40.76954,-73.95436,80,4.0,2023-02-26 00:33:53.379785
MZBmKvXcNGCPqJ_dKOn7VQ,Hancock St,American,"'257 6th Ave New York, NY 10014'",40.7290259,-74.0028210815977,58,4.0,2023-02-26 00:33:53.379796
hk3ohp_A4L4UgWTexDxf_Q,Gallaghers Steakhouse,American,"'228 W 52nd St New York, NY 10019'",40.762876,-73.983837,1602,4.0,2023-02-26 00:33:53.379806
DH-USCstvXkPSeufxboAJQ,DK PubLIC,American,"'3840 29th St Long Island City, NY 11101'",40.75374,-73.93461,8,4.5,2023-02-26 00:33:53.379817
b8a-8u_A51v2IzyjLVsx6w,Del Frisco's Double Eagle Steakhouse,American,"'1221 Ave Of The Americas New York, NY 10020'",40.759412,-73.982221,3376,4.0,2023-02-26 00:33:53.379826
7uhYhpUPHpRnNJvJxKROVw,City Winery Grand Central,American,"'89 E 42nd St New York, NY 10017'",40.752779,-73.976731,6,4.0,2023-02-26 00:33:53.379838
csVEpHy5KJoFvM1qp5XwLQ,Le Parisien,American,"'163 East 33rd St New York, NY 10016'",40.7454079308793,-73.9791478306885,1045,4.0,2023-02-26 00:33:53.379848
8dkPWx3Upl1H6tLwLiEsPw,Eastwood,American,"'200 Clinton St New York, NY 10002'",40.714155,-73.987064,149,4.0,2023-02-26 00:33:53.379859
WaUuOzaY7WnmBer2nTLPUQ,Mace,American,"'35 W 8th St New York, NY 10011'",40.733138,-73.998044,321,4.0,2023-02-26 00:33:53.379868
kMQ0IXs5mdjDeUvpWSHgRg,Il Mulino New York - Tribeca,American,"'361 Greenwich St New York, NY 10013'",40.71904,-74.01016,50,4.0,2023-02-26 00:33:53.379878
LpVbI-E9C-CSp7WhU5h2Iw,Fishmarket Restaurant,American,"'111 South St New York, NY 10038'",40.70717,-74.00192,626,4.5,2023-02-26 00:33:53.379888
e7krRmyE5upHv2gsEOdR8w,Mayamezcal,American,"'304 E 6th St New York, NY 10003'",40.72711,-73.98817,619,4.0,2023-02-26 00:33:53.379898
ZnhRUBos9FGQZrzbcPn6Vg,O'Hara's Restaurant and Pub,American,"'120 Cedar St Ste 4 New York, NY 10006'",40.7093473589949,-74.0122557367896,558,4.0,2023-02-26 00:33:53.379908
n_NIY1KTi-R5DPkduEUKIw,Ovest Pizzoteca by Luzzo's,American,"'513 W 27th St New York, NY 10001'",40.7507476806641,-74.0030212402344,593,4.0,2023-02-26 00:33:53.379920
U_hLyiUqDB16FBREKfJ8Xw,The Barrow House,American,"'1296 Van Houten Ave Clifton, NJ 07013'",40.8717056,-74.172376,1152,4.0,2023-02-26 00:33:53.379930
