business_id,name,cuisine,address,latitude,longitude,number_of_reviews,rating,inserted_at_time_stamp
Xjswj531-FkRZPpcccU6kQ,Vida Verde,Mexican,"'248 W 55th St New York, NY 10019'",40.7649503286729,-73.9828372257363,1493,4.5,2023-02-26 00:32:26.870087
MaoCNdHni6MLjM9iYQqHcg,Frida Midtown,Mexican,"'214 E 52nd St New York, NY 10022'",40.756610894855896,-73.96919065816803,118,4.5,2023-02-26 00:32:26.870119
Wx6lMnEh7dCmX-9PQF1Ifw,Toloache 50,Mexican,"'251 West 50th St New York, NY 10012'",40.762227,-73.9856178382696,2220,4.0,2023-02-26 00:32:26.870133
6Ct7OeTRn4caY9g0swFBsw,La Contenta,Mexican,"'102 Norfolk St New York, NY 10002'",40.71873,-73.98691,886,4.5,2023-02-26 00:32:26.870145
_HxxUvRp-0FMH_RoEzG1TA,Barnacho,Mexican,"'937 2nd Ave New York, NY 10017'",40.75401583517405,-73.96886851277523,316,4.0,2023-02-26 00:32:26.870156
DFRpXRHjOHBxYHiuvwaEQQ,Rosa Mexicano,Mexican,"'61 Columbus Ave New York, NY 10023'",40.77115637915222,-73.9831131,1465,3.5,2023-02-26 00:32:26.870167
BsDu_kup3lJ2QHb-Botpeg,Covacha,Mexican,"'368 Columbus Ave New York, NY 10023'",40.78110489839311,-73.97644500326436,149,4.0,2023-02-26 00:32:26.870179
SOWmvC20kikJBoWE3TmppA,Rosa Mexicano,Mexican,"'251 E 52nd St New York, NY 10022'",40.75648947211715,-73.96785410691132,74,3.5,2023-02-26 00:32:26.870190
xGoSAOhQBNdJMJmPn7CMDQ,MEXiCUE,Mexican,"'1440 Broadway New York, NY 10018'",40.754109,-73.986015,663,4.0,2023-02-26 00:32:26.870202
WyiTT3VHjzowMnOnUpZ7TQ,Empellón,Mexican,"'510 Madison Ave New York, NY 10022'",40.75972,-73.97472,415,4.0,2023-02-26 00:32:26.870212
ihzI-4yGesoQuAoIocao8g,Tacuba Hell's Kitchen,Mexican,"'802 9th Ave New York, NY 10019'",40.76545,-73.98729,798,4.0,2023-02-26 00:32:26.870223
4UxmxAqehEIh7fYrzUEA7A,Tacovision,Mexican,"'244 E 53rd St New York, NY 10004'",40.7568200311153,-73.9678929001093,371,4.0,2023-02-26 00:32:26.870234
e7krRmyE5upHv2gsEOdR8w,Mayamezcal,Mexican,"'304 E 6th St New York, NY 10003'",40.72711,-73.98817,619,4.0,2023-02-26 00:32:26.870245
SULHf6nGQ8sK0UpG1XU30w,Los Tacos No.1,Mexican,"'229 W 43rd St New York, NY 10036'",40.7575067,-73.9877717,2631,4.5,2023-02-26 00:32:26.870255
a2BkT6uUKDpzhLalkksJsg,Tacombi,Mexican,"'202 E 70th St New York, NY 10021'",40.768036983514506,-73.96119122060036,123,4.0,2023-02-26 00:32:26.870267
KDpFAWkLofuabBSpnNJY5A,Amor Loco,Mexican,"'134 W 46th St New York, NY 10036'",40.75797140479767,-73.98387478465575,88,4.0,2023-02-26 00:32:26.870277
Ahx8GsuAGUl8TgqCWP7uXw,Temerario,Mexican,"'198 8th Ave New York, NY 10011'",40.7434133400872,-73.9996277220286,367,4.0,2023-02-26 00:32:26.870289
IfIyjm4SfORGYPbaAWST3g,MEXiCUE,Mexican,"'225 5th Ave New York, NY 10010'",40.743617,-73.987867,658,4.0,2023-02-26 00:32:26.870299
dgaNriM1VdI2nGochhHE_g,Casa Enrique,Mexican,"'5-48 49th Ave Long Island City, NY 11101'",40.743404338358,-73.954350367693,1447,4.0,2023-02-26 00:32:26.870310
TgoYhgbPCYhLBNtpue3QHg,Maya,Mexican,"'1191 1st Ave New York, NY 10065'",40.7632055528185,-73.9596225112209,1063,3.5,2023-02-26 00:32:26.870322
sTu5z5HUcIYykg97HHj8xA,El Centro,Mexican,"'824 9th Ave New York, NY 10019'",40.76602,-73.98688,905,4.0,2023-02-26 00:32:26.870333
dYWjNK07igws9jFNgQmhng,Rosa Mexicano,Mexican,"'9 E 18th St New York, NY 10003'",40.738306632767085,-73.99081456881349,1650,3.5,2023-02-26 00:32:26.870344
hKkPlYmHoS9Nb_UbGGqx8A,Street Taco,Mexican,"'358 3rd Ave New York, NY 10016'",40.74097,-73.98202,485,4.0,2023-02-26 00:32:26.870354
2iwT3iutZvmqzmu7oOkWFw,Dos Caminos,Mexican,"'1567 Broadway New York, NY 10036'",40.7593727,-73.9853281,757,3.5,2023-02-26 00:32:26.870364
tuP7STBjszTvKcQLeFMnkw,Nina's Great Burrito Bar,Mexican,"'522 Columbus Ave New York, NY 10024'",40.786026,-73.972724,388,4.0,2023-02-26 00:32:26.870375
RUsot7ERPbYA_wOKMlVpAQ,Azule Cantina,Mexican,"'31 W 52nd St New York, NY 10019'",40.7606700654272,-73.97805009037256,17,4.0,2023-02-26 00:32:26.870386
xWLSJOiN1mMRHmBmHyjAfw,Mad Dog & Beans Mexican Cantina,Mexican,"'5 E 38th St New York, NY 10016'",40.75081210000001,-73.9819335,654,4.0,2023-02-26 00:32:26.870397
uLWp1QR_W2WJImMnB706hg,MEXiCUE,Mexican,"'160 8th Ave New York, NY 10011'",40.74202,-74.00046,566,4.0,2023-02-26 00:32:26.870408
PqqnNrUtU7XTKQvUM4cyqQ,Bar Verde,Mexican,"'65 2nd Ave New York, NY 10003'",40.7260849061034,-73.9897361397743,416,4.5,2023-02-26 00:32:26.870418
10tnq8x2qI7ix7VqVP0rMw,Tacombi,Mexican,"'377 Amsterdam Ave New York, NY 10024'",40.782610492988084,-73.97844461874793,247,4.0,2023-02-26 00:32:26.870430
tvqtAjAyc7dplVVwhw3VZQ,La Contenta Oeste,Mexican,"'78 W 11th St New York, NY 10011'",40.7352,-73.99808,307,4.0,2023-02-26 00:32:26.870440
7bD22UAtH56ikWYslOSIQg,Calexico - Upper East Side,Mexican,"'1491 2nd Ave New York, NY 10075'",40.77259,-73.95588,814,4.0,2023-02-26 00:32:26.870450
ub2VfE7SRLJABAClzGZp3A,Tacombi,Mexican,"'30 W 24th St New York, NY 10010'",40.7426928390848,-73.9903668237837,769,4.0,2023-02-26 00:32:26.870462
ddFY9PpygYagv7-jVduB2Q,Counter & Bodega,Mexican,"'216 7th Ave New York, NY 10011'",40.743833,-73.996231,229,4.5,2023-02-26 00:32:26.870472
U6l20gH8YuOJMO8vF6_Ufw,Jajaja Mexicana,Mexican,"'450 W 33rd St Whole Foods New York, NY 10001'",40.75264793272132,-73.99981519174997,52,4.5,2023-02-26 00:32:26.870483
zwWksgd8M4-g7RBmVudYTg,Aldama,Mexican,"'91 S 6th St Brooklyn, NY 11249'",40.710999707909046,-73.96489653736353,70,4.0,2023-02-26 00:32:26.870495
PAJdNrD4HFBN16OAFeDx4A,Ponche Taqueria & Cantina,Mexican,"'420 W 49th St New York, NY 10019'",40.76319,-73.99045,558,4.0,2023-02-26 00:32:26.870505
9aJ1MVTthZw3QjqoG7mPjg,Rosie's,Mexican,"'29 E 2nd St New York, NY 10003'",40.72492,-73.99079,883,4.0,2023-02-26 00:32:26.870516
qjCl34rJ0zVUHaZ1irb8FA,Taqueria Ramirez,Mexican,"'94 Franklin St Brooklyn, NY 11222'",40.727876136419724,-73.95699203025863,105,4.5,2023-02-26 00:32:26.870526
iPc-zPgcpgeSo76xl5Jbpw,The Maze,Mexican,"'32 W 32nd St Fl 3 New York, NY 10001'",40.747846,-73.9872499,677,4.0,2023-02-26 00:32:26.870537
kn9rgR4KlvyTTi-s76OIaQ,Toloache 82nd,Mexican,"'166 E 82nd St New York, NY 10028'",40.776483,-73.956708,503,4.0,2023-02-26 00:32:26.870547
7ERwg_4Kiaq1ezKTSSv7pg,Taqueria 86,Mexican,"'210 W 94th St New York, NY 10025'",40.793,-73.97214,95,4.5,2023-02-26 00:32:26.870558
vyKBwzRdNX4yiJDIFv37iw,Oxomoco,Mexican,"'128 Greenpoint Ave Brooklyn, NY 11222'",40.7299099,-73.95548,551,4.0,2023-02-26 00:32:26.870568
mJVO64T1WWzJYvNlbLSQNA,Lucio Angelita Tacos,Mexican,"'55 Lexington Ave New York, NY 10022'",40.7594591154635,-73.9697938801726,26,4.0,2023-02-26 00:32:26.870578
xN4yKQMzo3PIoQlFamUOLQ,La Esquina - Midtown,Mexican,"'200 W 55th St New York, NY 10019'",40.7642986928764,-73.9814604957066,259,4.0,2023-02-26 00:32:26.870590
B6bEkY9sJ_GU2pD2Rwb4gg,El Mitote,Mexican,"'208 Columbus Ave New York, NY 10023'",40.77578,-73.98021,599,3.5,2023-02-26 00:32:26.870601
WZynqsGjqQLc_T8R80_-7g,Yellow Rose,Mexican,"'102 3rd Ave New York, NY 10003'",40.732575,-73.98806909999999,146,4.5,2023-02-26 00:32:26.870612
L3REPLCvQpMapYPd_fkS-A,Los Mariscos,Mexican,"'409 W 15th St New York, NY 10011'",40.74207,-74.00565,751,4.5,2023-02-26 00:32:26.870623
9_CEU7Wmvmwlyvqr-PJD6w,Ofrenda,Mexican,"'113 7th Ave S New York, NY 10014'",40.73391,-74.00242,1074,4.0,2023-02-26 00:32:26.870632
M1YYZ9cTVuMXLji_XF6rzg,Dos Caminos,Mexican,"'373 Park Ave S New York, NY 10016'",40.7422737,-73.9846134,1359,3.5,2023-02-26 00:32:26.870643
ry7XCoXXxS0DxRmzZLFybw,Taqueria Gramercy,Mexican,"'218 3rd Ave New York, NY 10003'",40.7363,-73.98531,143,4.0,2023-02-26 00:32:27.920309
Nnuz_Ic0IdWOUbl64r4Hkg,Fonda Park Slope,Mexican,"'434 7th Ave Brooklyn, NY 11215'",40.663631439209,-73.9846343994141,899,4.0,2023-02-26 00:32:27.920338
1nR3kKOs938gcgnw6p5wjg,Sinigual,Mexican,"'640 3rd Ave Manhattan, NY 10017'",40.7503161990978,-73.97508162972879,1047,3.5,2023-02-26 00:32:27.920355
YFL1rAdlv7J0cswHVhvCtQ,Ruta Oaxaca Mexican Cuisine,Mexican,"'35-03 Broadway Astoria, NY 11106'",40.76058,-73.92182,238,4.5,2023-02-26 00:32:27.920369
y2dSu-qwp1BmLfQRn_c-1Q,Bar Lula,Mexican,"'132 1st Ave New York, NY 10009'",40.72743,-73.98521,45,4.5,2023-02-26 00:32:27.920382
LQHegfNHe7ylY3bocrFlpg,Calle Dao - Bryant Park,Mexican,"'38 W 39th St New York, NY 10018'",40.752167,-73.98422161374535,1866,4.0,2023-02-26 00:32:27.920394
_M5FVY4hkcuU-ASdVZPfRQ,Tacos El Bronco,Mexican,"'4324 4th Ave Brooklyn, NY 11220'",40.65006,-74.00915,679,4.0,2023-02-26 00:32:27.920494
xemN4tP9RlK5c-yUT-M71Q,Mamasita Bar & Grill,Mexican,"'818 10th Ave New York, NY 10019'",40.76733,-73.98945,1515,4.0,2023-02-26 00:32:27.920510
bVi0Rk_GfkrJJELLXaqEeA,Dos Toros Taqueria,Mexican,"'636 Lexington Ave New York, NY 10022'",40.7592114,-73.9706706,100,3.0,2023-02-26 00:32:27.920523
clTandR9fDd4OaREI8qTsQ,El Tepeyac Taqueria,Mexican,"'1505 Lexington Ave New York, NY 10029'",40.78665,-73.95019,3,5.0,2023-02-26 00:32:27.920535
EHUNrnIgnhwTnpOm3gEESg,Tacuba,Mexican,"'35-01 36th St Astoria, NY 11106'",40.75609,-73.924441,741,4.0,2023-02-26 00:32:27.920547
6ptX8V8WW_IzhHXLJ4SRAA,Dos Toros Taqueria,Mexican,"'465 Lexington Ave New York, NY 10017'",40.75352,-73.97418,202,3.5,2023-02-26 00:32:27.920559
AABqAsYdRI9gSyU1gStdxg,Gina Mexicana,Mexican,"'145 E 61st St New York, NY 10021'",40.7634,-73.9668,172,3.0,2023-02-26 00:32:27.920571
VzdToJAHuLY07TlXZTdIwA,Tito Murphy's,Mexican,"'346 W 46th St New York, NY 10036'",40.76034,-73.989743,223,4.0,2023-02-26 00:32:27.920582
BdHWUmVFuo1R8Lctv4K1Ow,El Parador Cafe,Mexican,"'325 E 34th St New York, NY 10016'",40.7444599,-73.97472,489,4.0,2023-02-26 00:32:27.920594
OZHywdX0bT2MCmyUHoQNHA,El Fish Marisquería,Mexican,"'155 Amsterdam Ave 67th St New York, NY 10023'",40.77523410000001,-73.9838458,8,4.5,2023-02-26 00:32:27.920607
7YYp_2WYWdRSt_NohV7Psw,Casa Birria NYC,Mexican,"'86th & 3rd Ave New York, NY 10028'",40.778824,-73.953986,90,5.0,2023-02-26 00:32:27.920620
qr24KgWcZGUhKZIPyVMsNw,Maz Mezcal,Mexican,"'316 E 86th St New York, NY 10028'",40.77741,-73.95103,424,3.5,2023-02-26 00:32:27.920632
YsDmYRzJo3kiwZvIe1r0Fg,Playa Betty’s,Mexican,"'320 Amsterdam Ave New York, NY 10023'",40.78075,-73.98032,956,3.5,2023-02-26 00:32:27.920643
IpBG_nY_opO9Zy-xNBEQCg,La Chilaquería - New York,Mexican,"'139 W 28th St New York, NY 10001'",40.746995,-73.992207,38,5.0,2023-02-26 00:32:27.920656
cy0vBvZu2Eb4XtRFCp8Seg,Conmigo,Mexican,"'1685 1st Ave New York, NY 10128'",40.77793,-73.94902,334,4.0,2023-02-26 00:32:27.920668
AgAkUVLN_axMY-bzbNCfCw,Yuca Bar,Mexican,"'111 Avenue A New York, NY 10009'",40.7262,-73.9836,1960,4.0,2023-02-26 00:32:27.920679
NOh24SMS6k4pzNv8Ds7KDg,Cafe Habana,Mexican,"'17 Prince St New York, NY 10012'",40.722998,-73.994171,3290,4.0,2023-02-26 00:32:27.920691
Q10FeFs1mtNchv1NbNcsLg,Oaxaca Taqueria,Mexican,"'152 E 33rd St New York, NY 10016'",40.745314,-73.97949471396348,142,3.5,2023-02-26 00:32:27.920703
FavssEgZjXFi2unEXePkVQ,Tacombi,Mexican,"'255 Bleecker St New York, NY 10014'",40.73112,-74.00272,469,4.0,2023-02-26 00:32:27.920715
skN-mgnOezFQr9YNh5G5TQ,Lolita's Kitchen,Mexican,"'1364 Lexington Ave New York, NY 10128'",40.7824207446896,-73.9534502033954,135,4.0,2023-02-26 00:32:27.920728
0ksKKrgHt-6xCCHfTlLcoA,tán,Mexican,"'209 East 49th St New York, NY 10017'",40.754989,-73.970506,24,4.0,2023-02-26 00:32:27.920740
twQFM-8T_Y4yYIqeEPk4XQ,Casa Carmen,Mexican,"'114 Franklin St New York, NY 10013'",40.718705771624705,-74.00606353625375,40,4.0,2023-02-26 00:32:27.920753
AUyKmFjpaVLwc3awfUnqgQ,Chela & Garnacha,Mexican,"'33-09 36th Ave Astoria, NY 11106'",40.7556474,-73.9274415,433,4.5,2023-02-26 00:32:27.920766
hR1bG0jgd2_Z9Q5L6siTEw,Antojito Mexicano,Mexican,"'6th Avenue & 28th Street New York, NY 10001'",40.7460380678347,-73.9905191880082,37,4.5,2023-02-26 00:32:27.920779
msTXsZGFMWSCMsdf6yIB2Q,La Cocina De Mama,Mexican,"'154E 109th St New York, NY 10029'",40.793995,-73.944716,15,5.0,2023-02-26 00:32:27.920791
H08vCdbcP3oy0cBEKqM5KQ,El Rey del Sabor,Mexican,"'166 E 60th St New York, NY 10021'",40.7622400274526,-73.9663818196397,73,4.0,2023-02-26 00:32:27.920804
RzKR9QcYP03EQ_8DxTxowg,Barrio Chino,Mexican,"'253 Broome St New York, NY 10002'",40.718022,-73.990026,1176,4.0,2023-02-26 00:32:27.920816
xGNzAsakHgbbl9fwgSoiUg,Kahlo,Mexican,"'525 West 29th St New York, NY 10001'",40.752092,-74.0026757,222,4.0,2023-02-26 00:32:27.920828
DQuwci5xgJxXx7dxxp9FBA,Taqueria St. Marks Place,Mexican,"'79 St Marks Pl New York, NY 10003'",40.72788723475379,-73.98557625767012,471,4.0,2023-02-26 00:32:27.920840
r5NT8-nV4py2c-mppTKucQ,Essex Taqueria,Mexican,"'123 Essex St New York, NY 10002'",40.7197418,-73.9877989,322,4.0,2023-02-26 00:32:27.920853
jnEv25Y2DosTq2sNnvmC9g,Los Tacos No.1,Mexican,"'75 9th Ave Chelsea Market New York, NY 10011'",40.7422546402357,-74.0059581,3698,4.5,2023-02-26 00:32:27.920865
boRM4i0UQswxQIp6CA9y_A,La Esquina - SoHo,Mexican,"'114 Kenmare St New York, NY 10012'",40.721372,-73.997529,2163,3.5,2023-02-26 00:32:27.920877
TULCjzJjDMlpruzjCcB9rw,Mermaid Mexicana,Mexican,"'79 MacDougal St New York, NY 10012'",40.72879,-74.00165,15,4.0,2023-02-26 00:32:27.920889
bx-a5t04wBiJnX9E3aSNBw,Empellón Taqueria - Waterline Square,Mexican,"'645 West 59th St New York, NY 10069'",40.77236,-73.99186,40,3.5,2023-02-26 00:32:27.920901
6ezrABEThm48qv1qj8_FVw,Javelina,Mexican,"'1395 2nd Ave New York, NY 10021'",40.7694,-73.95816,146,4.0,2023-02-26 00:32:27.920913
ePqKbqXFBCbwBaWiN2Jo9w,Ampersand,Mexican,"'294 3rd Ave New York, NY 10010'",40.7386178790617,-73.9834206895483,254,4.5,2023-02-26 00:32:27.920925
iHinXbZk2625noKq9XSvzA,Seeyamañana,Mexican,"'49 West 27th St New York, NY 10001'",40.745332,-73.990216,46,4.0,2023-02-26 00:32:27.920937
2kkjzgLwKHFmLAfR86kE3Q,Fonda Tribeca,Mexican,"'139 Duane St New York, NY 10013'",40.71645,-74.00783,28,4.5,2023-02-26 00:32:27.920949
zjnnccSIpMdx5fN-MxAr_w,La Superior,Mexican,"'295 Berry St Brooklyn, NY 11211'",40.71357,-73.96363,631,3.5,2023-02-26 00:32:27.920960
vgg1dvDP-9tFWSacN4q0nA,Coppelia,Mexican,"'207 W 14th St New York, NY 10011'",40.7389111700125,-73.9999985153443,1501,4.0,2023-02-26 00:32:27.920973
PHMkwS5nmo4IUXbcg0OcAg,Jajaja Mexicana,Mexican,"'63 Carmine St New York, NY 10014'",40.72979,-74.00455,567,4.5,2023-02-26 00:32:27.920985
oNgT6-rh-2TOeAF16AxXVw,Tacos & Tequila,Mexican,"'1742 2nd Ave New York, NY 10128'",40.78075,-73.94942,57,4.0,2023-02-26 00:32:27.920996
h8J10FpJGaU_4OvP2MgoKQ,Oso,Mexican,"'1618 Amsterdam Ave At 140th St New York, NY 10031'",40.82195,-73.9502399,352,4.0,2023-02-26 00:32:27.921010
E_oFzRY-7j9T04qHkORCsw,Santa Fe,Mexican,"'73 W 71st St New York, NY 10023'",40.7767563,-73.9789734,210,3.5,2023-02-26 00:32:27.921023
6rM-N1SBbKPC7DWZNg5awQ,Los Portales,Mexican,"'2508 Broadway Astoria, NY 11105'",40.7631768211379,-73.9282260153443,315,4.0,2023-02-26 00:32:28.551297
zxdsVR_hHUzhBFfus4yd7A,Dos Caminos,Mexican,"'675 Hudson St New York, NY 10014'",40.7404330511257,-74.0054753422738,1184,3.0,2023-02-26 00:32:28.551325
Vw2wUAkyHuTSJy9vSwMwrQ,Barnacho,Mexican,"'239 Park Ave S New York, NY 10003'",40.7379,-73.9878,8,4.0,2023-02-26 00:32:28.551338
d7YbQzGlmawMGAzUHzZvuw,Tacombi,Mexican,"'267 Elizabeth St New York, NY 10012'",40.72402294103019,-73.99386129999999,1201,4.0,2023-02-26 00:32:28.551349
2hmhZim4bX2lbjPSNc7LaA,Javelina,Mexican,"'119 E 18th St New York, NY 10003'",40.7368812561035,-73.9873886108398,528,4.0,2023-02-26 00:32:28.551361
tcAUSOnV9ZWR0y-Tv25h_w,Raiz Modern Mexican ,Mexican,"'120 1st Ave New York, NY 10009'",40.72708,-73.98546,67,5.0,2023-02-26 00:32:28.551372
57eZSBD62IdVmV3pYuzO4w,Barrio Taqueria,Mexican,"'33-02 34th Ave Astoria, NY 11106'",40.758655,-73.925633,102,4.0,2023-02-26 00:32:28.551384
ED91L2kUw_pwF_Pd1ZdViQ,Rancho Tequileria,Mexican,"'718 Amsterdam Ave New York, NY 10025'",40.793432,-73.971356,95,4.0,2023-02-26 00:32:28.551394
j7EApOJDGUrU7HAs2DyCOw,Wonder,Mexican,"'2030 Broadway New York, NY 10023'",40.77674437664585,-73.98177040000002,13,4.5,2023-02-26 00:32:28.551405
uwDuBWMQcRmdyBpnK0LkTg,‘ritas,Mexican,"'756 9th Ave New York, NY 10019'",40.7633331939511,-73.9887996051015,59,4.0,2023-02-26 00:32:28.551416
ueL0t_7Yu_ev2RrWK9dgDA,Tacombi,Mexican,"'23 W 33rd St New York, NY 10001'",40.74844037111226,-73.98618609111018,258,4.0,2023-02-26 00:32:28.551429
al9HKZ3kCJipAJW4uxzj4A,Havana Central,Mexican,"'151 W 46th St New York, NY 10036'",40.75833809808108,-73.98409870613455,2766,4.0,2023-02-26 00:32:28.551440
LyCE268_fz_MAZieFZY1lA,El Cantinero,Mexican,"'86 University Pl New York, NY 10003'",40.73364,-73.99324,585,3.0,2023-02-26 00:32:28.551517
U9BX6bMvXHk8umBYnS3Dog,Dos Toros Taqueria,Mexican,"'137 4th Ave New York, NY 10003'",40.7336815475083,-73.9897049423153,1374,4.0,2023-02-26 00:32:28.551531
juULANORQ2onWkEvSMjlaw,Al Horno Lean Mexican Kitchen,Mexican,"'1089 2nd Ave New York, NY 10022'",40.75967,-73.96525,139,3.5,2023-02-26 00:32:28.551542
NUdrJYB7GHRuwVVETSDIFQ,Top Quality,Mexican,"'10-29 44th Rd Long Island City, NY 11101'",40.74961,-73.94994,155,4.5,2023-02-26 00:32:28.551552
ifGXrRqs-zp6ek7LsoozrQ,Taqueria Diana,Mexican,"'129 2nd Ave New York, NY 10003'",40.7284337609976,-73.9879844318771,782,3.5,2023-02-26 00:32:28.551563
pG-IkylRFOb-HlaD8NwvvQ,La Loteria,Mexican,"'29 7th Ave S New York, NY 10014'",40.7307865530978,-74.0041882564488,359,4.0,2023-02-26 00:32:28.551574
4Z0sxJTNkxhRBH3l5PG_qw,Bar Tulix,Mexican,"'25 W Houston St New York, NY 10012'",40.72577,-73.99808,59,4.0,2023-02-26 00:32:28.551584
l0ZOGV9tohkpfHiZ-3XSRg,Friducha,Mexican,"'946 Manhattan Ave Brooklyn, NY 11222'",40.73152,-73.95432,133,4.0,2023-02-26 00:32:28.551594
sSoXtUwSGBKrZJhDmjo32A,SOBREMESA,Mexican,"'43-56 12th St Long Island City, NY 11101'",40.750260726364964,-73.94863097519296,25,4.0,2023-02-26 00:32:28.551605
WqjqHMozyW42XLTtLnKGag,La Pulperia Hell's Kitchen,Mexican,"'623 9th Ave New York, NY 10036'",40.7599217,-73.991841,870,4.0,2023-02-26 00:32:28.551615
Jd2_ZC4ugEMSY9ElivNZgg,Summer Salt,Mexican,"'30 East 23rd St New York, NY 10010'",40.74057,-73.98768,188,4.5,2023-02-26 00:32:28.551626
Zk8UgB9MDoIHWFYgAxNlIQ,De Mole,Mexican,"'2 Hope St Brooklyn, NY 11211'",40.71377,-73.95786,240,4.5,2023-02-26 00:32:28.551636
rbAxZRKdMoMxeonDTmooFg,El Vez,Mexican,"'259 Vesey St New York, NY 10282'",40.7147356376792,-74.015635,766,3.5,2023-02-26 00:32:28.551646
jUI2Mf4hUFPzhQGmPCL4aA,Amigo by Nai,Mexican,"'29 2nd Ave New York, NY 10003'",40.724686,-73.99086,96,4.5,2023-02-26 00:32:28.551656
HjvCwjM0EkFoYo8TFHjfww,Arre Sinaloa,Mexican,"'4605 Park Ave Union City, NJ 07087'",40.77804222204433,-74.0175949037075,29,5.0,2023-02-26 00:32:28.551667
v8tuFxvNkKdZytWTn9BhMA,Fonda Chelsea,Mexican,"'189 9th Ave New York, NY 10011'",40.7455185879981,-74.0021848849335,426,3.5,2023-02-26 00:32:28.551678
2zLgKnIQDmrJDb99jl9qRA,Tacos Güey,Mexican,"'37 W 19th St New York, NY 10011'",40.73997,-73.99323,84,4.0,2023-02-26 00:32:28.551688
nrwOQSXoRXfAYhkdjiUk8g,Toro Loco,Mexican,"'15 Stone St New York, NY 10004'",40.70421,-74.01208,428,4.0,2023-02-26 00:32:28.551698
jf95dOTlZB7oPWz9JLgaQA,Borrachito Taqueria & Spirits,Mexican,"'206 Avenue A New York, NY 10009'",40.7294609,-73.980749,73,4.0,2023-02-26 00:32:28.551708
sul_ihulQ5VUPNbk9liWqA,Cantina Rooftop,Mexican,"'605 W 48th St New York, NY 10036'",40.76497439968185,-73.99610715738004,1440,3.0,2023-02-26 00:32:28.551719
FeSZi6LBCcAIipoSua6dXg,La Esquina - UES,Mexican,"'1402 2nd Ave New York, NY 10021'",40.7693131667402,-73.9577519273524,207,3.5,2023-02-26 00:32:28.551730
a3xDhQkSIH451c_sEmtidQ,Oro Verde Taqueria,Mexican,"'150 8th Ave New York, NY 10011'",40.74182,-74.00078,7,4.5,2023-02-26 00:32:28.551741
qCf1QN11Qdncpqb7PhuyVw,The Rag Trader & Bo Peep Cocktail and Highball Store,Mexican,"'70 W 36th St New York, NY 10018'",40.75059,-73.98628,740,4.5,2023-02-26 00:32:28.551750
BEYmqrP1_TC0nhnTGKkkJg,Ella Social,Mexican,"'249 Columbus Ave New York, NY 10023'",40.7769826,-73.9788067,656,4.0,2023-02-26 00:32:28.551761
xrKa2SpgWzPEEbji3Iw2DQ,The Calaveras,Mexican,"'949 Columbus Ave New York, NY 10025'",40.79956,-73.96241,212,4.5,2023-02-26 00:32:28.551771
v4_89HfTm05NFTuukjsl_g,EL Burrito Box,Mexican,"'885 9th Ave New York, NY 10019'",40.76831,-73.98565,953,4.0,2023-02-26 00:32:28.551781
N90gLDq4XgqYanlRqaeNKg,Acapulco,Mexican,"'1116 Manhattan Ave Ste 2-L Brooklyn, NY 11222'",40.7367,-73.95517,297,4.0,2023-02-26 00:32:28.551791
AFMskIEWMA-9mawqSFEuqg,Buena Onda,Mexican,"'1446 1st Ave New York, NY 10021'",40.76992107323629,-73.95424961681297,8,4.0,2023-02-26 00:32:28.551801
1m6viubAWUgsTgguIrJT6A,Cosme,Mexican,"'35 E 21st St New York, NY 10010'",40.739691,-73.988428,1214,3.5,2023-02-26 00:32:28.551812
BbMUXd69i0tlWS2aoppwaQ,El Camion,Mexican,"'194 Ave A New York, NY 10009'",40.7291,-73.98105,759,4.0,2023-02-26 00:32:28.551821
SXWnyFNLCehVlJPRxk7gAg,Anejo Tribeca,Mexican,"'301 Church St New York, NY 10013'",40.71931499731559,-74.00427174111186,639,4.0,2023-02-26 00:32:28.551831
AUm7If5Cbvy20AnmyxE-xA,Dos Toros Taqueria,Mexican,"'52 W 52nd St New York, NY 10019'",40.7607084122727,-73.9784675091505,101,3.5,2023-02-26 00:32:28.551842
ojeMH0rbOOMx9ajChbVkJQ,Papatzul,Mexican,"'55 Grand St New York, NY 10013'",40.722148,-74.003677,474,3.5,2023-02-26 00:32:28.551853
mVaslo987DCd3YC_0FtWxA,Mole,Mexican,"'57 Jane St New York, NY 10014'",40.73824642587064,-74.00540857321451,506,3.5,2023-02-26 00:32:28.551863
iTj5T_jPYvznd1QTgs7NZw,Nai ,Mexican,"'84 2nd Ave New York, NY 10003'",40.7265319,-73.9888568,1058,4.5,2023-02-26 00:32:28.551874
1y900NbcusWxwVb01RSdcg,Bosco,Mexican,"'169 Bleecker St New York, NY 10012'",40.72882,-74.00025,16,4.5,2023-02-26 00:32:28.551883
LvzN8TrUGJRj_UkJV0cAtQ,Empanada Mama - Hell's Kitchen,Mexican,"'765 9th Ave New York, NY 10019'",40.76441,-73.9885,2911,4.0,2023-02-26 00:32:28.551893
Rc1lxc5lSKJYd162JHNMfQ,Bea,Mexican,"'403 W 43rd St New York, NY 10036'",40.7591968,-73.9923361,2811,4.0,2023-02-26 00:32:28.551903
mhrLDFTxUzW2koRAzjlt5g,Chavela's,Mexican,"'736 Franklin Ave Brooklyn, NY 11238'",40.673484,-73.957267,1257,4.0,2023-02-26 00:32:29.466858
NvyOagUcodDPHSDF5Vhbmg,Skinny's Cantina,Mexican,"'4705 Center Blvd Long Island City, NY 11109'",40.7457158661738,-73.9563131306885,599,3.0,2023-02-26 00:32:29.466885
bbb6QZReetkrrubqGWJokQ,Pulqueria,Mexican,"'11 Doyers St New York, NY 10013'",40.71448,-73.99819,505,3.5,2023-02-26 00:32:29.466899
R5jpETY0OshPn-AeJjs0fA,Dos Caminos,Mexican,"'475 W Broadway New York, NY 10012'",40.7266452,-73.9999024,1240,3.5,2023-02-26 00:32:29.466910
iXtZQ7twXQiv7j2ZdxZqUg,Burritos y Mas NY Tex-Mex,Mexican,"'1571 Lexington Ave New York, NY 10029'",40.7887686998247,-73.9486259859039,207,4.0,2023-02-26 00:32:29.466921
5SOM3bh1R5K3RZ9E20TxUg,Alma Restaurant,Mexican,"'187 Columbia St Brooklyn, NY 11231'",40.68557,-74.00215,543,3.5,2023-02-26 00:32:29.466932
jeWIYbgBho9vBDhc5S1xvg,Chano's Cantina,Mexican,"'35-55 31st St Astoria, NY 11106'",40.756621,-73.929336,214,4.0,2023-02-26 00:32:29.466943
O-n0wC7S1klkEsapuxhO_Q,Ensenada,Mexican,"'168 Borinquen Pl Brooklyn, NY 11211'",40.7105293956958,-73.95418263068801,14,4.0,2023-02-26 00:32:29.466953
V9jFJfuK3FzWCJGoY15EgQ,Blue Maiz,Mexican,"'606 8th Ave New York, NY 10018'",40.75541701110701,-73.99069692538708,291,4.0,2023-02-26 00:32:29.466965
JzUg9hbxpAbyvs0JzbFruA,Noche Mexicana,Mexican,"'842 Amsterdam Ave New York, NY 10025'",40.79746,-73.96828,294,3.5,2023-02-26 00:32:29.466976
0aQke5yyTjdfzj3onxPJkA,Citrico Cafe,Mexican,"'3290 36th St Queens, NY 11106'",40.758009,-73.923307,91,4.0,2023-02-26 00:32:29.466986
hyNYHig0zs4cku1vgVE7Jw,Pesce lulu Seafood Kitchen,Mexican,"'601 Lexington Ave The Hugh Marketplace New York, NY 10022'",40.75878,-73.97048,19,4.5,2023-02-26 00:32:29.466996
j9a6xr78a6tPBblKvvBJew,The Cactus Shop,Mexican,"'231 Kent Ave Brooklyn, NY 11249'",40.71672,-73.96543,41,4.0,2023-02-26 00:32:29.467006
qIOAlXCCYrwN0VxEEH-Tmw,Boqueria Flatiron,Mexican,"'53 W 19th St New York, NY 10011'",40.7402927726298,-73.9940709810079,1372,4.0,2023-02-26 00:32:29.467017
FXgSgiLg6xgOO8zrG51mzg,Claro,Mexican,"'284 3rd Ave Brooklyn, NY 11215'",40.6773587963142,-73.9861984489446,312,4.0,2023-02-26 00:32:29.467028
GCx7TnLKgLtUcXLIfQYfFA,Casa Azul,Mexican,"'369 7th Ave Brooklyn, NY 11215'",40.66549,-73.98259,145,4.5,2023-02-26 00:32:29.467038
SCQvI5pAJmD-OMm37kkS6Q,DORADO Tacos & Quesadillas,Mexican,"'28 E 12th St New York, NY 10003'",40.73396,-73.99312,713,4.0,2023-02-26 00:32:29.467048
2-yiGN-eDKPmxPvc55GPZg,Mezcali,Mexican,"'83 Maiden Ln New York, NY 10038'",40.70745,-74.00748,88,4.0,2023-02-26 00:32:29.467058
XipQLDbyTl5tsLlyzAWzug,Jajaja Mexicana,Mexican,"'162 E Broadway New York, NY 10002'",40.71419,-73.99041,1168,4.5,2023-02-26 00:32:29.467113
5S8ZK9XLdl4l645twbNYZQ,Boqueria,Mexican,"'1460 2nd Ave New York, NY 10075'",40.771522,-73.956073,919,4.0,2023-02-26 00:32:29.467126
3t1IjhshYUfDWIzpJn5YlQ,Cinco De Mayo,Mexican,"'153 E 43rd St New York, NY 10017'",40.75172171488582,-73.9742506021925,6,5.0,2023-02-26 00:32:29.467137
VIIfYEzIppjps0K_J_8zLg,El Rio Grande,Mexican,"'160 E 38th St New York, NY 10016'",40.74826,-73.97669,695,3.5,2023-02-26 00:32:29.467147
yuYv1MV_eoNAWCHOokXlRA,Taqueria On Tenth,Mexican,"'313 10th Ave New York, NY 10001'",40.751061,-74.002121,7,3.5,2023-02-26 00:32:29.467157
z5hRX3iJ5Ty_S38iG_WY3Q,Tanner Smiths,Mexican,"'204 W 55th St New York, NY 10019'",40.76442,-73.98169,1993,4.5,2023-02-26 00:32:29.467167
ErJ0cbHUxOozl0sz_3wl5A,CasaTulum,Mexican,"'229 Front St New York, NY 10038'",40.707471,-74.001911,12,4.0,2023-02-26 00:32:29.467177
L5eqJRy8Yx_4El6rUxWmBw,El Vez Burrito Bar,Mexican,"'259 Vesey St New York, NY 10282'",40.7147356376792,-74.015635,155,4.0,2023-02-26 00:32:29.467187
g6epuiA0PVw3-Ed33iDmzw,Kaña SoHo Bar,Mexican,"'324 Spring St New York, NY 10013'",40.725869,-74.009477,5,5.0,2023-02-26 00:32:29.467198
C3N8N3_ja6F_HsBE3r2bAg,Tacos Y Quesadillas,Mexican,"'299 E 69th St New York, NY 10021'",40.766867,-73.959839,7,5.0,2023-02-26 00:32:29.467209
bm1r5T7vc9dHws3tD6Y0sQ,Street Taco,Mexican,"'2672 Broadway New York, NY 10025'",40.79821,-73.96887,43,4.0,2023-02-26 00:32:29.467219
VThwGCuC6JVaxAgnmuJDRg,Cilantro,Mexican,"'485 Columbus Ave New York, NY 10024'",40.784629,-73.973121,486,3.5,2023-02-26 00:32:29.467229
0KdTQUZRpnm7keKnUpD99g,El Coco,Mexican,"'104 W 73rd St New York, NY 10023'",40.77813,-73.97869,19,4.0,2023-02-26 00:32:29.467238
Q0SZ32fKVWA02NX8Wdql7w,Kuxé,Mexican,"'205 Thompson St New York, NY 10012'",40.72876,-73.9995,129,4.5,2023-02-26 00:32:29.467248
LdbANxQjzdvzBqUESYTUnw,Los Tacos No. 1,Mexican,"'125 Park Ave New York, NY 10017'",40.751566,-73.977476,164,4.5,2023-02-26 00:32:29.467258
5PIEHs-0Jv-tS8bjDrypew,Taco Tumba,Mexican,"'30-10 Steinway St Astoria, NY 11103'",40.76372534484979,-73.9154483,103,4.0,2023-02-26 00:32:29.467268
lL5DgsvOuiI8nMQcjK1bMA,El Centro Cantina,Mexican,"'359 W 54th St New York, NY 10019'",40.76593,-73.98675,54,4.0,2023-02-26 00:32:29.467278
Ck09FempamAKGSPsV_bX-A,Xixa,Mexican,"'241 S 4th St Brooklyn, NY 11211'",40.7104,-73.95854,665,4.5,2023-02-26 00:32:29.467288
tCuPhpmf1PaYe5dmwdq8Ew,Pico De Gallo Bar & Kitchen,Mexican,"'768 Amsterdam Ave New York, NY 10025'",40.795205276680704,-73.96984093776311,235,4.0,2023-02-26 00:32:29.467299
0W0m68TNPbodGCA3PhIB4w,The Black Ant,Mexican,"'60 2nd Ave New York, NY 10003'",40.72578,-73.98952,615,4.0,2023-02-26 00:32:29.467310
0XuJtcq9nMdAWyhJ_fZC-w,Virgin Mary Tacos,Mexican,"'370 E 28th St New York, NY 10016'",40.7400398,-73.9766541,8,5.0,2023-02-26 00:32:29.467320
Yilk_Ucz4L6w9EmvAS2gHg,Taqueria Coatzingo,Mexican,"'7605 Roosevelt Ave Jackson Heights, NY 11372'",40.74721811502443,-73.88932086686563,484,4.0,2023-02-26 00:32:29.467331
4sHkiQ0qURBjL_gVLQbGPw,Taqueria Diana,Mexican,"'524 9th Ave New York, NY 10018'",40.75652,-73.99371,249,3.5,2023-02-26 00:32:29.467342
gZqraVPjHNZN03duxEX1mw,Tacoria,Mexican,"'208 Washington Ave Hoboken, NJ 07030'",40.73915015370283,-74.0307057,41,4.0,2023-02-26 00:32:29.467352
9z2lUyfzZV8b2rkkiwSM4g,ABC Cocina,Mexican,"'38 E 19th St New York, NY 10003'",40.738005,-73.989251,986,4.0,2023-02-26 00:32:29.467362
2u8T56A4qu-MjeuT-v7s_g,Casa Bocado,Mexican,"'341 Broome St New York, NY 10013'",40.71958,-73.99484,118,4.5,2023-02-26 00:32:29.467372
tk5cnLJDAlUmX_ZYBGzw1w,Tacos y quesadillas,Mexican,"'1280 Lexington Ave New York, NY 10028'",40.77993,-73.95546,22,4.5,2023-02-26 00:32:29.467381
XEugUtbw4rRmGr9S1XA-aQ,Alta,Mexican,"'64 W 10th St New York, NY 10011'",40.7345163811398,-73.9983369619683,2009,4.0,2023-02-26 00:32:29.467392
bdGaFXlocJSuQnGWYaVMyQ,Mayahuel,Mexican,"'32-7 34th Ave Ste 2 New York, NY 11106'",40.759372,-73.926076,17,4.5,2023-02-26 00:32:29.467402
m8z1eTTetr-JbSM1HU2t6Q,Tacos Y Quesadillas Mexico,Mexican,"'924 9th Ave New York City, NY 10019'",40.7686908,-73.9849574,50,4.0,2023-02-26 00:32:29.467412
v7hwkFxrz2pORrT9Fiiovw,La Lupe,Mexican,"'9 Jefferson St Brooklyn, NY 11206'",40.69725,-73.93517,198,3.5,2023-02-26 00:32:29.467422
QwL5LS436Xjo9MHFi2rc-g,Agave,Mexican,"'140 7th Ave S New York, NY 10014'",40.734767,-74.002415,1402,3.5,2023-02-26 00:32:29.467432
WE064Ln20S4MQVT1hETCCw,Canyon Road,Mexican,"'1470 1st Ave New York, NY 10075'",40.770694,-73.953774,297,4.0,2023-02-26 00:32:30.543000
anBWvFPOce4nl3qLX-H6Rg,El Mero Mero,Mexican,"'35-57 38th St Long Island City, NY 11101'",40.753834323302,-73.923701159656,128,4.5,2023-02-26 00:32:30.543029
f7g3GhoQs9nQVTJEL2p48Q,Gran Electrica,Mexican,"'5 Front St Brooklyn, NY 11201'",40.7027,-73.99314,523,3.5,2023-02-26 00:32:30.543045
xIi-TO8iDQCy1ZSHe11_Zw,El Paso Taqueria,Mexican,"'64 E 97th St New York, NY 10029'",40.787296295166,-73.9528121948242,258,3.0,2023-02-26 00:32:30.543058
NXjCypQNl7tBrdR3gkFqdg,Lupita's Restaurant,Mexican,"'2049 2nd Ave New York, NY 10029'",40.790205,-73.943136,142,4.0,2023-02-26 00:32:30.543071
Pda9zJfg0pRABp9krlJh3Q,El Rey Del Sabor,Mexican,"'43RD And 6th Ave New York, NY 10036'",40.7555250546562,-73.9836306448101,30,4.0,2023-02-26 00:32:30.543084
DY2wlHlgC5eHITs-d5rT4w,Panchos,Mexican,"'964 Amsterdam Ave New York, NY 10025'",40.8015,-73.96534,70,4.5,2023-02-26 00:32:30.543097
ePKsXWq7alN3Q1kQ6cKaUg,The Red Grill,Mexican,"'1701 2nd Ave New York, NY 10128'",40.77935,-73.95089,77,4.0,2023-02-26 00:32:30.543109
rpTW8Ozm8q8kN5RWOYSvFA,Oaxaca Taco De Revolucion,Mexican,"'5-29 46th Ave Long Island City, NY 11101'",40.7475815,-73.9542618,2,2.5,2023-02-26 00:32:30.543121
MfbVI5reXLIIs8Cc2HwgQw,Breakroom,Mexican,"'83 Baxter St New York, NY 10013'",40.7166907225542,-73.9999440120647,1680,4.5,2023-02-26 00:32:30.543134
X83qWL5WPR-QWGXGQ8WP-Q,NR,Mexican,"'339 E 75th St New York, NY 10021'",40.770153,-73.954956,289,4.5,2023-02-26 00:32:30.543147
HKBJGt04_ZSdiIWA_6J8kQ,Tortaria,Mexican,"'94 University Pl New York, NY 10003'",40.73387,-73.9930481239834,801,3.5,2023-02-26 00:32:30.543159
jFYEsw6_4y4VMpSVB863sw,Mojave,Mexican,"'22-36 31st St Astoria, NY 11105'",40.7753290076368,-73.9119911693115,791,3.5,2023-02-26 00:32:30.543172
EAN8rXqdrgIYsFNxUDVX-w,Limosneros,Mexican,"'366 Union Ave Brooklyn, NY 11211'",40.7114012897548,-73.95103148532137,12,4.5,2023-02-26 00:32:30.543185
zASGm-RyRNTY2xQir2nV_w,Jajaja Mexicana,Mexican,"'119 Kent Ave Brooklyn, NY 11249'",40.720138288951354,-73.96157921170422,94,4.5,2023-02-26 00:32:30.543198
NcIUA8l_kmbPEwqI9lzELg,Anejo,Mexican,"'668 10th Ave New York, NY 10036'",40.762577,-73.992919,823,3.5,2023-02-26 00:32:30.543211
foAYWheDCF9wUyKPuOGYow,Mole,Mexican,"'1735 2nd Ave New York, NY 10128'",40.78033,-73.950306,427,3.5,2023-02-26 00:32:30.543222
ZIfh0Vv86ktGZDdM3YME-w,Mexico Lindo Restaurant,Mexican,"'459 2nd Ave New York, NY 10010'",40.73981,-73.97984,270,3.5,2023-02-26 00:32:30.543234
YKAwpTnKO-n5vB9-pqaCLQ,Taqueria Y Fonda,Mexican,"'968 Amsterdam Ave New York, NY 10025'",40.8016168,-73.965212,516,3.5,2023-02-26 00:32:30.543246
9yc2V6zNpLG58uPV_ykBog,Boqueria West 40th St,Mexican,"'260 W 40th St New York, NY 10018'",40.75558,-73.99012,666,4.0,2023-02-26 00:32:30.543258
9waWbkovs6DyF9ynlZeJhQ,Cielito NYC,Mexican,"'3302 36th Ave Astoria, NY 11106'",40.75564667,-73.92806333,73,4.0,2023-02-26 00:32:30.543270
iK2jJQA72XRjf4nUD3cAnA,Tortilleria Mexicana Los Hermanos,Mexican,"'271 Starr St Brooklyn, NY 11237'",40.7066299,-73.92198,774,4.0,2023-02-26 00:32:30.543282
-vBfKWJ1v9YdJQT5XUbcBQ,Le Botaniste,Mexican,"'833 Lexington Ave New York, NY 10065'",40.7649986274526,-73.9659830279587,455,4.5,2023-02-26 00:32:30.543295
uipFunIVqRWwopfEvrscyQ,Casa Mezcal,Mexican,"'86 Orchard St New York, NY 10002'",40.7179602,-73.9902328,451,3.5,2023-02-26 00:32:30.543307
qLUH_0H8ct_DTSqrjwd3DQ,DORADO Tacos & Quesadillas,Mexican,"'570 Lexington Ave New York, NY 10022'",40.757137,-73.972584,29,3.5,2023-02-26 00:32:30.543319
J9pgjC191T-odCmTAG-grQ,El Diablito Taqueria,Mexican,"'60 E 3rd St New York, NY 10003'",40.72504,-73.98917,425,4.0,2023-02-26 00:32:30.543392
WgAJUrVaMcMtQxsiIc02sQ,Quesadillas Doña Maty,Mexican,"'228 E 116th St New York, NY 10029'",40.7972183,-73.9390182,65,4.0,2023-02-26 00:32:30.543408
jYAqup9AF9N9wYAWYanZ-A,Arriba Arriba Midtown,Mexican,"'762 9th Ave New York, NY 10019'",40.7641288111074,-73.9882850646973,995,3.5,2023-02-26 00:32:30.543422
2VdLKWG8e3bT7fTng4UNBg,Calabrije's Margaritas & Tacos,Mexican,"'1619 York Ave New York, NY 10028'",40.77555277141703,-73.9478079705522,24,3.5,2023-02-26 00:32:30.543435
7RgdHGMY9Xa2Ur5y7vSBZQ,Homemade Taqueria,Mexican,"'45-09 34th Ave Long Island City, NY 11101'",40.7546939084048,-73.9165629007979,401,4.0,2023-02-26 00:32:30.543448
AhRzrLCNagCX87EK-VBVog,Summer Salt,Mexican,"'275 Madison Ave New York, NY 10016'",40.7511757,-73.9799914622357,40,4.5,2023-02-26 00:32:30.543461
GXK3j99VZK-7JJ0YrtIR0w,Parada 47,Mexican,"'526 W 47th St New York, NY 10036'",40.763092,-73.99443,65,4.0,2023-02-26 00:32:30.543473
J_9-q-WFMWg5swNVzzZ_XA,Lupe's East L.A. Kitchen,Mexican,"'110 Ave Of The Americas New York, NY 10013'",40.7236932215964,-74.00455078574569,427,3.5,2023-02-26 00:32:30.543486
QqrEF8_ZQCGi63cL10J5oA,Chola,Mexican,"'232 E 58th St New York, NY 10022'",40.76016,-73.96582,665,4.0,2023-02-26 00:32:30.543499
eZ0J2lwGdOBZHQKTC5hQYQ,Cerveceria Havemeyer,Mexican,"'149 Havemeyer St New York, NY 11211'",40.7116974,-73.9574585,137,3.5,2023-02-26 00:32:30.543510
ApzxIf8AYh3MEgvF63Zuvw,Cantina 48,Mexican,"'605 W 48th St Fl 3 New York, NY 10036'",40.76497,-73.99607,12,3.5,2023-02-26 00:32:30.543522
wygR5Tl5bS42ojSGEZHf8w,Bar Cima,Mexican,"'30 W 39th St New York, NY 10018'",40.75213,-73.98383,3,5.0,2023-02-26 00:32:30.543533
0oRYwB_SLqjHptvUQwwe2w,Tajin,Mexican,"'85 Greenwich St New York, NY 10006'",40.707905071154805,-74.01362173954276,265,3.5,2023-02-26 00:32:30.543546
8p1HTzXEcC3TCbLz59xMng,La Diagonal,Mexican,"'185 St Nicholas Ave New York, NY 10026'",40.8061,-73.95302,267,4.0,2023-02-26 00:32:30.543558
3vBVnzsJLRh8WtW3awKxeQ,Bodega 88,Mexican,"'573 Columbus Ave New York, NY 10024'",40.7875358759796,-73.9711353555322,225,4.5,2023-02-26 00:32:30.543571
RyEd54MOTc5OcYtOiDt11g,Iguana Restaurant & Dance Lounge,Mexican,"'240 W 54th St New York, NY 10019'",40.7642063,-73.9832105,940,3.0,2023-02-26 00:32:30.543583
1HPdyg0OLRkjHeixVmbu0Q,Cocina Del Sur,Mexican,"'40 W 38th St New York, NY 10018'",40.7515296936035,-73.9846572875977,150,4.0,2023-02-26 00:32:30.543596
mmAlHhnTDXIohPC3wfl0hQ,Mesa Coyoacan,Mexican,"'372 Graham Ave Brooklyn, NY 11211'",40.715528,-73.944273,823,4.0,2023-02-26 00:32:30.543608
JAL8di-znskAHDTrLIdhfg,For All Things Good,Mexican,"'343 Franklin Ave Brooklyn, NY 11238'",40.687630013555,-73.9568200707436,45,4.5,2023-02-26 00:32:30.543620
7-aFmvscXWT223jlWrOkWg,Mictlan Mexico,Mexican,"'17 Orchard St New York, NY 10002'",40.71524,-73.99183,33,4.5,2023-02-26 00:32:30.543633
mpPZhqTzk2_Pz35gBQnbCw,Santa Fe BK,Mexican,"'178 N 8th St Brooklyn, NY 11211'",40.718101199815685,-73.95677762208928,71,4.5,2023-02-26 00:32:30.543645
GVc1Eh-Welogn5qgaK-PFA,Tamale Lady,Mexican,"'37 E 39th St New York, NY 10016'",40.750843,-73.9801865,4,5.0,2023-02-26 00:32:30.543658
OwV-MtDBC2H08rVcBqP2mA,Pio Pio 8,Mexican,"'604 10th Ave New York, NY 10036'",40.760506289326,-73.994564488901,2542,4.0,2023-02-26 00:32:30.543670
_2jMPuiK-7nLepFdPu2TTQ,345 Cantina,Mexican,"'345 E 6th St New York, NY 10003'",40.72665,-73.98651,11,4.5,2023-02-26 00:32:30.543682
KzJYO3-2k9XJhOHVpXayZQ,Empellón Al Pastor East Village,Mexican,"'132 St Marks Pl New York, NY 10009'",40.72668,-73.98336,286,3.5,2023-02-26 00:32:30.543694
yKPRuBvD3ScCc18QrZ4Y6w,El Porton,Mexican,"'3151 Broadway New York, NY 10027'",40.81452,-73.95966,212,3.5,2023-02-26 00:32:31.594069
XGdUYzkPkX94RoLlPDymeQ,Tacos Y Quesadillas Mexico,Mexican,"'2030 Broadway Ave New York, NY 10023'",40.777487,-73.982069,39,4.0,2023-02-26 00:32:31.594100
vC5XPdWzKa-c8iUQlUwEUQ,Orale Mexican Kitchen,Mexican,"'1426 Willow Ave Hoboken, NJ 07030'",40.75493,-74.02968,313,4.0,2023-02-26 00:32:31.594116
MS32PBIYzOcYmO0b7aDRbw,Pia,Mexican,"'425 W 15th St New York, NY 10011'",40.74247,-74.00658,10,5.0,2023-02-26 00:32:31.594129
EZZh8594pRwAM1e_WVGeFA,Organic Mexican Food,Mexican,"'50th Street & 6th Ave New York, NY 10020'",40.7598992013858,-73.9804509576337,5,4.0,2023-02-26 00:32:31.594143
wAmWk6hQaHjREDVe8z2otA,Pampano Taqueria,Mexican,"'805 3rd Ave New York, NY 10022'",40.75537,-73.97054,166,3.5,2023-02-26 00:32:31.594156
MwyEUg5EXuqTf1mjKU08ng,Xolo,Mexican,"'29 Dunham Pl Brooklyn, NY 11249'",40.71153,-73.96761,23,4.5,2023-02-26 00:32:31.594168
uQ0kF3fiJFDm0oDVRaMBkw,Carla,Mexican,"'25-03 40th Avenue Long Island City, NY 11101'",40.753517,-73.937647,133,4.5,2023-02-26 00:32:31.594181
jzVv_21473lAMYXIhVbuTA,De Mole Astoria,Mexican,"'4220 30th Ave Astoria, NY 11103'",40.7625999,-73.9129028,413,4.0,2023-02-26 00:32:31.594193
jB5fXguSmlX65asSB3KIfQ,Charrito's Restaurant,Mexican,"'974 Blvd E Weehawken, NJ 07086'",40.77707,-74.0136,782,3.0,2023-02-26 00:32:31.594205
PZKJirrvQt8VPSnMnOzlQw,For All Things Good,Mexican,"'314 Grand St Brooklyn, NY 11211'",40.71272,-73.957,8,4.5,2023-02-26 00:32:31.594218
xK1HSKDbYfuCvWw8u1OXlQ,Fresco's Grand Cantina,Mexican,"'28-50 31st St New York, NY 11102'",40.76739,-73.92136,31,4.0,2023-02-26 00:32:31.594229
uVfOB37NyYEGRs5FITM-nQ,Leyenda,Mexican,"'221 Smith St Brooklyn, NY 11201'",40.68431,-73.99197,308,4.0,2023-02-26 00:32:31.594241
6AJwsgXr7YwsqneGVAdgzw,Las Catrinas Mexican Bar & Eatery,Mexican,"'32-02 Broadway Astoria, NY 11106'",40.7614214682633,-73.9246649456171,441,4.0,2023-02-26 00:32:31.594254
4pj4ol7lXiytDD-BTKe3kg,Las Santas,Mexican,"'572 Fulton St Brooklyn, NY 11217'",40.6882,-73.97953,304,4.0,2023-02-26 00:32:31.594302
YgVUJg4-aUsSu9dLhfF-3Q,Pinks,Mexican,"'242 E 10th St New York, NY 10003'",40.7287913560867,-73.9845903217793,240,4.0,2023-02-26 00:32:31.594325
8PhwiTru5teSaZ8C6hrIww,Casa Mono,Mexican,"'52 Irving Pl New York, NY 10003'",40.7359281440206,-73.9871550967319,1379,4.0,2023-02-26 00:32:31.594341
ftL-f4OoFFshVYSZwTOrYA,The Owl's Tail,Mexican,"'215 W 75th St New York, NY 10023'",40.781040643739,-73.9807120224114,124,4.0,2023-02-26 00:32:31.594355
XO6IbZn2oxonPrfcXHK4HA,Casa Mexicana,Mexican,"'894 Amsterdam Ave New York, NY 10025'",40.7989892,-73.966955,221,4.0,2023-02-26 00:32:31.594368
BxnrBKdLwdaEXyq97uxgKg,Cascalote Latin Bistro,Mexican,"'2126 2nd Ave New York, NY 10029'",40.79271,-73.94069,387,4.5,2023-02-26 00:32:31.594381
kJCjKpwcOFA1fal0fuNVRg,Tacoria,Mexican,"'24-26 Erie st Jersey City, NJ 07302'",40.721858,-74.044181,269,4.5,2023-02-26 00:32:31.594394
zNcDCPiUsE5aT6jyaCVtmA,Fresco's Cantina,Mexican,"'12-14 31st Ave Long Island City, NY 11106'",40.76837,-73.93303,289,4.5,2023-02-26 00:32:31.594406
by2g5iFuvQife99pHOuXDg,Antojitos Caseros,Mexican,"'231 W 39th St The Deco New York, NY 10018'",40.754907,-73.989615,8,4.5,2023-02-26 00:32:31.594419
tnxb_qM5e7J5wIfYwJB3Ig,The Elgin,Mexican,"'64 West 48th St New York, NY 10036'",40.758194,-73.980905,260,4.5,2023-02-26 00:32:31.594431
fhqAmrQsX45YQ9zyvZ938g,Tortazo,Mexican,"'1123 Broadway New York, NY 10010'",40.74332,-73.98924,62,4.0,2023-02-26 00:32:31.594443
iaMuLypgQa8yaDWOOmlGVg,Zona Tribeca,Mexican,"'353 Greenwich St New York, NY 10013'",40.71865,-74.01008,63,3.5,2023-02-26 00:32:31.594454
mBFnE5EDUwpZiEsSf_1piA,Los Tacos City Habanero,Mexican,"'48th Ave Vernon Blvd Long Island City, NY 11101'",40.7440144504923,-73.9537688118532,82,4.5,2023-02-26 00:32:31.594467
hJrZIHNRVUuC_PXAORxj9g,Favela Cubana,Mexican,"'543 LaGuardia Pl New York, NY 10012'",40.7284702112794,-73.9979839324952,1227,4.0,2023-02-26 00:32:31.594482
4wVaJsvTuBTXAMzkhjwccg,Overlook,Mexican,"'225 E 44th St New York, NY 10017'",40.751771,-73.972199,285,3.5,2023-02-26 00:32:31.594494
aTBxCoZDOnqAXPDdQmrxMg,Taqueria Mexico 2000,Mexican,"'131 Grand St Brooklyn, NY 11249'",40.71509,-73.96246,38,4.0,2023-02-26 00:32:31.594506
yqU1-chsjix3T4EMY2MyxA,Athens Grill & Sports Bar,Mexican,"'3011 30th Ave Astoria, NY 11102'",40.76734,-73.92178,217,4.0,2023-02-26 00:32:31.594518
8WnHtvMdPWE66eSkUdbLhQ,Flip Sigi,Mexican,"'131 7th Ave S New York, NY 10014'",40.7344965,-74.0020674,934,4.0,2023-02-26 00:32:31.594600
4c4Uwb5yUqXJ-inkcDinIg,Mcondo Tacos,Mexican,"'502 Grand St Brooklyn, NY 11211'",40.7108323440285,-73.9509542539666,376,4.0,2023-02-26 00:32:31.594616
GeL6wGdzhdEhuIFQau3ocQ,Taqueria Meza,Mexican,"'95 7th Ave S New York, NY 10014'",40.7330017,-74.002915,288,3.5,2023-02-26 00:32:31.594629
Sh8OVFc08NwUkGB4_XKQ9Q,Taco Tavern,Mexican,"'480 Amsterdam Ave New York, NY 10024'",40.7859,-73.97653,34,3.5,2023-02-26 00:32:31.594648
frWu5KfSULdCHd0GmA-ytw,La Palapa,Mexican,"'77 St Mark's Pl New York, NY 10003'",40.727969,-73.985604,753,3.5,2023-02-26 00:32:31.594661
dy48bFMiPiZ56ZkQsbSpHw,Frida's Favorites,Mexican,"'North Broadway Garment District Urbanspace Food Festival New York, NY 10001'",40.7488436855265,-73.9880524849005,4,4.5,2023-02-26 00:32:31.594674
_csLDQow8YzjZJNEeZUMUw,Planet Taco,Mexican,"'141 2nd Ave New York, NY 10003'",40.72914,-73.98749,73,4.5,2023-02-26 00:32:31.594687
zT93JCAGIuHkLaD2YenUgQ,Los Cuernos,Mexican,"'499 Washington Blvd Jersey City, NJ 07310'",40.72598,-74.03594,210,3.5,2023-02-26 00:32:31.594699
huCqalKTIWBv8w6fFsG49g,Tobalá,Mexican,"'3732 Riverdale Ave The Bronx, NY 10463'",40.88748545950914,-73.90687009999999,19,4.5,2023-02-26 00:32:31.594712
rdSvooYVyQ2q0IKvUKYMyg,Tacombi,Mexican,"'27-10 43rd Ave Queens, NY 11101'",40.74771504742684,-73.941554,93,3.5,2023-02-26 00:32:31.594726
ID5DkaAOMpTmkAFR8bVLLQ,Lost in Paradise Rooftop,Mexican,"'11-01 43rd Ave New York, NY 11101'",40.75198,-73.94752,64,3.5,2023-02-26 00:32:31.594738
s7ZVdhnQXBxmwadL3lDp0w,El Gallo Negro 2,Mexican,"'41-34 Queens Plz N Queens, NY 11101'",40.74982245,-73.93764305,1,3.0,2023-02-26 00:32:31.594750
5RqQOSTz5WBxZYH1iIzv4A,Los Tacos Hermanos,Mexican,"'570 8th Ave New York, NY 10018'",40.75476,-73.99137,9,4.5,2023-02-26 00:32:31.594763
-Qn5nXGhxWHNePA0dYmPSg,Tacos Times Square,Mexican,"'43 West 55st 1fl New York, NY 10019'",40.76253,-73.97671,119,4.0,2023-02-26 00:32:31.594774
CfOBb6NU2awo8xclJpKU3g,Chela Park Slope,Mexican,"'408 5th Ave Brooklyn, NY 11215'",40.67032,-73.98569,633,4.5,2023-02-26 00:32:31.594786
Pf3tk5fYN-GVxXWRokjIWg,Colonia Verde,Mexican,"'219 Dekalb Ave Brooklyn, NY 11205'",40.6897354125977,-73.970703125,228,4.0,2023-02-26 00:32:31.594799
StpOKezaW-AyN2xA1EJKvw,Victor's Cafe,Mexican,"'236 W 52nd St New York, NY 10019'",40.7629499,-73.98403,1636,4.0,2023-02-26 00:32:31.594811
t7xqAMBQNH4ppsPSOMzFyg,Treadwell Park,Mexican,"'1125 1st Ave New York, NY 10065'",40.7614,-73.9609,532,4.0,2023-02-26 00:32:31.594823
h8uXSLLFAdgltp36x0sXJQ,Chofi Birria,Mexican,"'1706 Summit Ave Union City, NJ 07087'",40.76468,-74.0392,145,4.5,2023-02-26 00:32:31.594834
UmY9dyGOclJ0tGbn1IozlA,Zaragoza Mexican Deli & Grocery,Mexican,"'215 Ave A New York, NY 10009'",40.730102,-73.980949,323,4.0,2023-02-26 00:32:32.642691
m3C3d47Bh4NJHGXvT6Rqbg,Mexico 2000 Restaurant,Mexican,"'369 Broadway Brooklyn, NY 11211'",40.70765,-73.95493,181,3.5,2023-02-26 00:32:32.642716
1Ylu26XW3F6gSJWdFw6-8g,Great Burrito,Mexican,"'100 W 23rd St New York, NY 10011'",40.7428322,-73.9930115,265,4.0,2023-02-26 00:32:32.642729
j4dGkqL-OK9YH8Sl2eOWEg,5 Burro Cafe,Mexican,"'72-05 Austin St Forest Hills, NY 11375'",40.7192464187592,-73.8422552802263,1543,3.5,2023-02-26 00:32:32.642740
AnAZaBsEuBjYvzaPMTN0oQ,Flats Fix,Mexican,"'28 E 16th St New York, NY 10003'",40.7365039,-73.9910582,243,3.5,2023-02-26 00:32:32.642751
AStYD2Uo6NR1gzZ0xXrn9g,El Sabroso,Mexican,"'265 W 37th St New York, NY 10018'",40.7540843452975,-73.9914900079345,148,4.0,2023-02-26 00:32:32.642762
MNNpsRXe7Wt5m3Jla9Wk0w,The Alcove,Mexican,"'41-11 49th St Sunnyside, NY 11104'",40.7459065,-73.915103,1068,5.0,2023-02-26 00:32:32.642772
8A7qOO6r1ZpZwVaYndA6-A,Electric Burrito,Mexican,"'81 St Marks Pl New York, NY 10003'",40.727858,-73.985473,133,4.5,2023-02-26 00:32:32.642782
Hh9glEE_xDYT_pPUsRPXlA,Blend on the Water,Mexican,"'45-40 Center Blvd Long Island City, NY 11109'",40.748216,-73.956973,3741,4.0,2023-02-26 00:32:32.642792
vN1CYP0WNSPfdmZAstfdOg,Sabor A Mexico 2,Mexican,"'233 E 77th St New York, NY 10021'",40.772556,-73.957035,201,3.5,2023-02-26 00:32:32.642802
FkA9aoMhWO4XKFMTuTnl4Q,Atla,Mexican,"'372 Lafayette St New York, NY 10012'",40.7271874,-73.9938924,369,3.5,2023-02-26 00:32:32.642812
trOfIBnEr_CxZuLRyGj9FQ,Miti Miti,Mexican,"'138 5th Ave Brooklyn, NY 11217'",40.6786672454389,-73.9791200818081,1506,4.0,2023-02-26 00:32:32.642822
IBgjj5VBu5JJvKgo9EzKrg,The Three Monkeys,Mexican,"'236 W 54th St New York, NY 10019'",40.764164,-73.98306,1328,4.0,2023-02-26 00:32:32.642832
IUM8v3grz9CBCmTOXk7sdA,La Tiendita Taqueria,Mexican,"'37-06 30th Ave Astoria, NY 11103'",40.76431789999999,-73.916479,159,4.0,2023-02-26 00:32:32.642842
KNo4WyHcQ8Kwd4zXy_mhfA,El Cantante,Mexican,"'110 Leroy St New York, NY 10014'",40.73019,-74.00762,2,4.0,2023-02-26 00:32:32.642853
lTUNj8Q4Yv8OB1vD7YZKOA,El Jalapeno taqueria,Mexican,"'204 W 4th St New York, NY 10014'",40.733196172640056,-74.002585065464,12,5.0,2023-02-26 00:32:32.642863
0o0s6bUIuy0LTGNR3xYzzw,Dos Toros Taqueria,Mexican,"'1111 Lexington Ave New York, NY 10075'",40.7739509,-73.9594762,404,3.5,2023-02-26 00:32:32.642874
YYB2lPax5wAdeNWUcm5WAg,Mexicocina,Mexican,"'503 Jackson Ave Bronx, NY 10455'",40.811884525549,-73.90966713749,197,4.0,2023-02-26 00:32:32.642884
hSkeb_lmfxnoqg7EVo19Vw,Taco Mix,Mexican,"'234 E 116th St New York, NY 10029'",40.797098,-73.938785,456,3.5,2023-02-26 00:32:32.642894
9fG8-RRh1rzuCKN2TmF-QQ,5ive Spice,Mexican,"'227 Mulberry St New York, NY 10012'",40.722598,-73.996272,651,4.5,2023-02-26 00:32:32.642904
DICO4Og4KD7gWgZzR1ldng,Taqueria Nixtamal,Mexican,"'115 Delancey St The Market Line New York, NY 10002'",40.71827,-73.98806,23,4.5,2023-02-26 00:32:32.642914
r2eXF4w9e8_V3RQTTPTfKw,Eastpoint,Mexican,"'25 Ave B New York, NY 10009'",40.72228,-73.98311,90,4.0,2023-02-26 00:32:32.642924
DiHm4iIAQhqMKfjsrBPvZw,Socarrat Paella Bar - Chelsea,Mexican,"'259 W 19th St New York, NY 10011'",40.7426956,-73.9995488,1272,4.0,2023-02-26 00:32:32.642933
MxrjY6myVl8vK0YvCT4r4g,Las Delicias Mexicanas,Mexican,"'2109 3rd Ave New York, NY 10029'",40.79735,-73.94009,87,4.0,2023-02-26 00:32:32.642943
Th9rQGHSR1C96tMa7kQN5A,Etérea,Mexican,"'511 E 5th St New York, NY 10009'",40.72469937616872,-73.9837465054878,68,4.5,2023-02-26 00:32:32.642954
onGzhRqmlmYixXljTT3QVQ,Sobre Masa,Mexican,"'52 Harrison Pl Brooklyn, NY 11237'",40.70634,-73.93136,29,4.5,2023-02-26 00:32:32.642965
5IGFJRN06HiclnivxaFThQ,El Pote Español Restaurant,Mexican,"'718 2nd Ave New York, NY 10016'",40.74754,-73.9735,217,4.0,2023-02-26 00:32:32.642974
jjosc19o7g0PQ7OjpB1xZw,adelitas,Mexican,"'23-07 Steinway St Queens, NY 11103'",40.77062888790362,-73.90829465277385,7,4.5,2023-02-26 00:32:32.642986
MOZ5R0tqNmO2InOd3eDw5g,Lime & Salt,Mexican,"'98-102 Queens Blvd Queens, NY 11374'",40.789873,-73.8289994,41,4.5,2023-02-26 00:32:32.642996
cUyfnb3E7HvzNfbTgTjl_Q,Despaña Fine Foods & Tapas Cafe,Mexican,"'408 Broome St New York, NY 10013'",40.721094,-73.9978255,594,4.5,2023-02-26 00:32:32.643006
LJTGRkX5yWoqx1jJ7E4zqw,Haymaker Bar and Kitchen,Mexican,"'252 W 29th St New York, NY 10001'",40.7487508496393,-73.995229748466,381,4.0,2023-02-26 00:32:32.643017
_PqNDaGlo1fxku0U7qsnqw,Viva Margarita,Mexican,"'163 Old River Rd Edgewater, NJ 07020'",40.80668,-73.99235,298,3.0,2023-02-26 00:32:32.643027
IOHaEgK1zDvUvB3SfKuGCw,Parker & Quinn,Mexican,"'64 W 39th St New York, NY 10018'",40.752586217581296,-73.9850713153442,1593,4.0,2023-02-26 00:32:32.643038
iJUoxnxbCtVDMek4keHJFQ,Pokito,Mexican,"'155 S 4th St Brooklyn, NY 11211'",40.71162,-73.96184,145,4.5,2023-02-26 00:32:32.643048
7I-4qCgJq3n0yan1ChE-ew,Zona Rosa,Mexican,"'571 Lorimer St Brooklyn, NY 11211'",40.7139388888686,-73.9494076703442,505,3.5,2023-02-26 00:32:32.643058
mWS4umRg2AyykyAClMrIRw,The Penrose,Mexican,"'1590 2nd Ave New York, NY 10028'",40.775427,-73.953115,1417,4.0,2023-02-26 00:32:32.643068
G2PCaDt_VC4O4w6uRMpE9A,Birria LES,Mexican,"'127 Rivington St New York, NY 10002'",40.719628849397935,-73.98711402147562,115,4.0,2023-02-26 00:32:32.643079
gTlgBbwKW8XPxllVEQLRCA,Tiny's Cantina,Mexican,"'229 Flatbush Ave Brooklyn, NY 11217'",40.681255,-73.97520649632989,57,4.5,2023-02-26 00:32:32.643132
Ui-E0CK2BBVVoOzulzzhcQ,Carmen's Kitchen,Mexican,"'302 W 38th St New York, NY 10011'",40.7547995,-73.9921988,63,4.5,2023-02-26 00:32:32.643145
nzsInryiJhLei5cwThIrZA,Viva Birria,Mexican,"'153 Ludlow St New York, NY 10002'",40.72091,-73.98805,14,4.5,2023-02-26 00:32:32.643156
gAAG2KJ_pdfAK-_UVN-bjQ,Oaxaca Taqueria,Mexican,"'130 Grand St Brooklyn, NY 11249'",40.7149695,-73.9627357,55,3.0,2023-02-26 00:32:32.643166
n7wiN5Ergd_BSzBHVp8-SQ,Los 3 Charros,Mexican,"'57 Lenox Ave New York, NY 10026'",40.8001,-73.95143,26,4.5,2023-02-26 00:32:32.643176
I9QQYu9c4Z7NySAAe9isoA,Casa Maya,Mexican,"'1264 Myrtle Ave Brooklyn, NY 11221'",40.69788604703111,-73.92679590207989,18,4.0,2023-02-26 00:32:32.643187
G92jSUckfs4MhD6bGPyHow,Taqueria Diana,Mexican,"'367 Metropolitan Ave Brooklyn, NY 11211'",40.7142179690191,-73.9556609,92,4.0,2023-02-26 00:32:32.643197
98Bm2w9RzNJQZo4U3jSgQQ,Tacos Times Square,Mexican,"'134 E 27th St New York, NY 10016'",40.7417320336149,-73.9823354903991,148,4.0,2023-02-26 00:32:32.643208
XYyIWs-3J4bZRZDfcsMquQ,Rancho Tequileria,Mexican,"'741 9th Ave New York, NY 10019'",40.763717,-73.989189,359,3.5,2023-02-26 00:32:32.643219
SP4bvMvxel_UPdof_er3HA,Taco Mahal,Mexican,"'73 7th Ave S New York, NY 10014'",40.73235768476899,-74.00332645767203,787,4.5,2023-02-26 00:32:32.643229
zv29TbzPs9-rD5ql0qWw5A,The Shadmoor,Mexican,"'1066 2nd Ave New York, NY 10022'",40.75866,-73.9655499,428,4.0,2023-02-26 00:32:32.643239
eTR6nfHvQzvKX7Dcd6JrfA,District Social,Mexican,"'252 W 37th St New York, NY 10018'",40.7535743713379,-73.9914321899414,725,4.0,2023-02-26 00:32:32.643249
RGSjUKs-hNpCSafrFcU-VQ,La Flor,Mexican,"'53-02 Roosevelt Ave Woodside, NY 11377'",40.74434,-73.91141,266,4.5,2023-02-26 00:32:32.643259
DTKKEogIt2wQm4UULYVGug,Mad Dog & Beans Mexican Cantina,Mexican,"'83 Pearl St New York, NY 10004'",40.704168,-74.010261,1048,3.5,2023-02-26 00:32:33.689772
f7-4kTNeYOhZdtJgXlbqBQ,El Rancho Burritos,Mexican,"'359 W 45th St New York, NY 10036'",40.7603099,-73.99087,139,3.5,2023-02-26 00:32:33.689800
qZfJbJPxZUkC66lRldcbGA,Tulcingo Restaurant,Mexican,"'665 10th Ave New York, NY 10036'",40.762756,-73.993545,323,3.5,2023-02-26 00:32:33.689812
izX40YJYnqBwlnhOEMcbEw,Tacos Juquilita,Mexican,"'310 Madison Ave New York, NY 10016'",40.7501759,-73.978959,17,4.5,2023-02-26 00:32:33.689823
AIKjw2QLvVNdha3TciJYzg,Boqueria Soho,Mexican,"'171 Spring St New York, NY 10012'",40.7249227818105,-74.00215536627918,1220,4.0,2023-02-26 00:32:33.689835
k3iUNUGsl-xpQ_EsOfTadA,Ollin Restaurant,Mexican,"'339 E 108th St New York, NY 10029'",40.7912288,-73.9395386,456,4.0,2023-02-26 00:32:33.689846
mNS4lJ66nND2cRoxF9aP3Q,Mariachi Grill,Mexican,"'262 Ridge Rd Lyndhurst, NJ 07071'",40.80951,-74.11764,350,4.5,2023-02-26 00:32:33.689856
yvva7IYpD6J7OfKlCdQrkw,Mi Espiguita Taqueria,Mexican,"'32-44 31st St Astoria, NY 11106'",40.7612033639422,-73.9261436462402,143,4.5,2023-02-26 00:32:33.689867
RemvTpxalDjSew5HwmNzUQ,The Dead Rabbit,Mexican,"'30 Water St New York, NY 10004'",40.70329,-74.01102,1830,4.0,2023-02-26 00:32:33.689877
16bXxf22x14xrzvVWbFeHQ,Leon Bakery Mexican Restaurant,Mexican,"'695 9th Ave New York, NY 10036'",40.762237,-73.990272,63,4.0,2023-02-26 00:32:33.689887
15pcxijuNY8BMNzBhABt7w,Miss Lily's 7A Cafe,Mexican,"'109 Avenue A New York, NY 10009'",40.726019,-73.9837551,870,4.0,2023-02-26 00:32:33.689897
3DNtS1_3gobrYQBAwDx4DA,Calexico - Greenpoint,Mexican,"'645 Manhattan Ave Brooklyn, NY 11222'",40.72416,-73.95132,753,3.5,2023-02-26 00:32:33.689907
eW0p8TpZa-_BFG53B7tHgQ,Alcala Restaurant,Mexican,"'246 E 44th St New York, NY 10017'",40.751148223877,-73.971809387207,180,4.0,2023-02-26 00:32:33.689918
RThvexVhZQ8KA6JAr0UkCQ,Casa Adela,Mexican,"'66 Loisaida Avenue New York, NY 10009'",40.722650655675935,-73.97974337731952,565,4.0,2023-02-26 00:32:33.689929
-EOqWiMqQ_6QwLBKwmWdsQ,Alma Negra,Mexican,"'494 4th Ave Brooklyn, NY 11215'",40.668789863362726,-73.990421,32,5.0,2023-02-26 00:32:33.689940
LHxZgTddXIp_S1sL3nNG9w,Park Avenue Tavern,Mexican,"'99 Park Ave New York, NY 10016'",40.75031,-73.9783999,943,4.0,2023-02-26 00:32:33.689950
5LO5C4doYF_UP2OB29zYMg,Empellón Taqueria,Mexican,"'230 W 4th St New York, NY 10014'",40.7341219,-74.0030294,751,3.5,2023-02-26 00:32:33.689960
UH_aksIxzGPPyhWZJbTP7A,Cantina Taqueria & Tequila Bar,Mexican,"'1838 7th Ave New York, NY 10026'",40.800338992692026,-73.95497594715312,565,4.0,2023-02-26 00:32:33.689972
-Jdk7iFGj2fT4jzPXyEZFA,El Gallo Taqueria,Mexican,"'502 Amsterdam Ave New York, NY 10024'",40.78666,-73.97599,34,3.5,2023-02-26 00:32:33.689983
1-QgkACd4atRtc4AOGWz_Q,Tacos Y Jugos Genesis,Mexican,"'7804 Woodside Ave Elmhurst, NY 11373'",40.7435971734647,-73.8868284970522,150,4.0,2023-02-26 00:32:33.689993
VLGmFHE4s0Sfu0piMVQa1Q,Hold Fast Kitchen & Spirits,Mexican,"'364 W 46th St New York, NY 10036'",40.76064,-73.99023,569,4.5,2023-02-26 00:32:33.690004
UlDO0B-Km4md4ydftjfvaQ,MÉXology,Mexican,"'28-17 Jackson Ave Long Island City, NY 11101'",40.748981678811695,-73.93874363738132,17,4.0,2023-02-26 00:32:33.690014
IBY_PUKMfcbHAtO8BTqigg,Moho Mexican Grill,Mexican,"'38-05 Bell Blvd Bayside, NY 11361'",40.766353,-73.772158,261,4.0,2023-02-26 00:32:33.690025
RLjlJPtciMdE2nEurLmmNQ,La Casa de Los Tacos,Mexican,"'290 County Ave Secaucus, NJ 07094'",40.7740104861106,-74.06321,254,4.0,2023-02-26 00:32:33.690035
vYB5bZOJQkmBquzQ8D23-w,Comodo,Mexican,"'23 Lexington Ave New York, NY 10010'",40.73981,-73.98436,47,4.0,2023-02-26 00:32:33.690045
mhhTORjUdXj-UIDjyGmhBg,Estiatorio Milos - Midtown New York,Mexican,"'125 W 55th St New York, NY 10019'",40.763541894630784,-73.97902511983438,1046,4.0,2023-02-26 00:32:33.690055
60sLpAHHl-IvANGTRzfCow,Tacos Grand Central,Mexican,"'711 2nd Ave New York, NY 10016'",40.7476230390695,-73.9740906903076,55,4.5,2023-02-26 00:32:33.690067
XPbcjRWxumT4ZQr-7uqOAw,Los Tacos No.1,Mexican,"'340 Lafayette St New York, NY 10012'",40.726157,-73.9946634,91,4.5,2023-02-26 00:32:33.690077
z4pKyIi2HJcbf9xvHaktDg,The Rooftop at Selina Chelsea,Mexican,"'518 W 27th St New York, NY 10001'",40.7504133,-74.0034186,1,4.0,2023-02-26 00:32:33.690087
_WhV2UWBj6ULaLlo_I9FMg,El Encanto De Lola 2,Mexican,"'175 Lenox Ave New York, NY 10026'",40.80389,-73.94865,103,3.5,2023-02-26 00:32:33.690098
ykTNq1F-Vpfw4i4xGhPS0Q,The Little Taco House,Mexican,"'246 West 4th St New York, NY 10014'",40.73475,-74.00321,81,4.5,2023-02-26 00:32:33.690107
wOvCuvf0ftfTxQ-8NJ6V4A,Xochimilco Mexican Restaurant & Bakery,Mexican,"'321-323 61st St West New York, NJ 07093'",40.78872,-74.01255,26,4.0,2023-02-26 00:32:33.690117
uvcEo61aL2F8e4PCzwZsYg,Chihuahua,Mexican,"'47-02 Greenpoint Ave Sunnyside, NY 11104'",40.74232,-73.91777,183,4.5,2023-02-26 00:32:33.690131
02QBPRcN0LYO3neX_oqx4Q,Gordo's Cantina,Mexican,"'140 St Nicholas Ave Brooklyn, NY 11237'",40.704883,-73.917605,295,4.0,2023-02-26 00:32:33.690142
9YXvNE2jpEhA4k6M8WDH7A,Ñaño Ecuadorian Kitchen,Mexican,"'691 10th Ave New York, NY 10036'",40.7631,-73.99335,622,4.5,2023-02-26 00:32:33.690152
YS21bp9Wp715X75r7eTzxw,Mi Querido Mexico Lindo,Mexican,"'247 E 116th St New York, NY 10029'",40.79733,-73.93816,12,4.5,2023-02-26 00:32:33.690162
4rAXH_bl_iJ1BwHp7I3rYg,Al Horno Lean Mexican Kitchen,Mexican,"'417 W 47th St New York, NY 10036'",40.762151,-73.991049,266,3.5,2023-02-26 00:32:33.690172
p7MviobRqz5rvdzmsjBdEw,El Aguila,Mexican,"'1634 Lexington Ave New York, NY 10029'",40.790573,-73.947715,227,4.0,2023-02-26 00:32:33.690182
2L67SVTZblwESKq9gVYv5w,Mi Ranchito,Mexican,"'696 Anderson Ave Cliffside Park, NJ 07010'",40.82826,-73.98618,9,4.0,2023-02-26 00:32:33.690191
XmogJstBXGY35Y3yjlI9yA,La Cafe,Mexican,"'17 W 45th St New York, NY 10036'",40.7560043334961,-73.9803085327148,1,4.0,2023-02-26 00:32:33.690202
8_NilECM6qg_L7WYb25uNw,Luchadores,Mexican,"'87 South St New York, NY 10038'",40.70582,-74.00411,130,4.0,2023-02-26 00:32:33.690212
bbSVzQG_vBlc7uKOT-IATQ,Dos Toros Taqueria,Mexican,"'10 E 48th St New York, NY 10017'",40.75685,-73.97738,26,3.5,2023-02-26 00:32:33.690221
61XtmtiMHNPnu7Qw5DxYzQ,La Frontera Mexicana,Mexican,"'497 E138th St Bronx, NY 10454'",40.8079899,-73.91952,4,4.0,2023-02-26 00:32:33.690290
sshS0FJ6tKkmLCcEKXyVkA,"El Tepeyac Food Market: Carniceria, Grocery & Taqueria",Mexican,"'1621A Lexington Ave New York, NY 10029'",40.789743,-73.947903,56,4.5,2023-02-26 00:32:33.690303
4jucppz-BA0MiY06DjuBYQ,Frijolito's,Mexican,"'3446 Broadway New York, NY 10031'",40.8234652876854,-73.9524172246456,171,4.5,2023-02-26 00:32:33.690315
WV4wYPAGb3W69MfBqIZDHg,Dos Toros Taqueria,Mexican,"'555 8th Ave New York, NY 10018'",40.75468,-73.99214,72,3.5,2023-02-26 00:32:33.690325
9i_HCwucmCSLFOw53BeXpw,Guac Time,Mexican,"'599 6th Ave New York, NY 10011'",40.73959,-73.99556,39,3.5,2023-02-26 00:32:33.690335
4BH4Fjvuh5FdsUQKL6bGeg,Fogon,Mexican,"'899 Tenth Ave New York, NY 10019'",40.7687676,-73.98538309999999,10,4.5,2023-02-26 00:32:33.690345
yx_VkPE7FRV_Hk8ay9WPgA,Common Ground,Mexican,"'63 Gansevoort St New York, NY 10014'",40.7395,-74.00726,205,3.0,2023-02-26 00:32:33.690359
XpgquUrYWa-URbgi-3pykg,Patacon Pisao,Mexican,"'139 Essex St New York, NY 10002'",40.720392,-73.987561,414,4.0,2023-02-26 00:32:33.690369
ssGhu4n3emZ9kEPVf371IQ,Cookshop,Mexican,"'156 10th Ave New York, NY 10011'",40.745731881448236,-74.00540454907613,2284,4.0,2023-02-26 00:32:34.737960
yx_VkPE7FRV_Hk8ay9WPgA,Common Ground,Mexican,"'63 Gansevoort St New York, NY 10014'",40.7395,-74.00726,205,3.0,2023-02-26 00:32:34.737991
h5WkewI6U7NjLB_n6WgdvQ,HandCraft Kitchen & Cocktails,Mexican,"'367 3rd Ave New York, NY 10016'",40.740967,-73.981292,480,4.0,2023-02-26 00:32:34.738006
8Lgz_cUAd4VFkLDpQ1xQ8w,Calaveras Corner,Mexican,"'936 Amsterdam Ave New York, NY 10025'",40.800694,-73.965824,18,4.0,2023-02-26 00:32:34.738019
0ozvPXsxdIdJ8RmuV0VQbQ,El Coco,Mexican,"'202 8th Ave New York, NY 10011'",40.74356,-73.99953,69,3.5,2023-02-26 00:32:34.738032
ssc_D24ASVmZWIVjkKN3cg,Tacos Pepe Truck,Mexican,"'Astoria, NY 11106'",40.76171875047911,-73.93183109733656,3,4.5,2023-02-26 00:32:34.738045
MuOI7pknWVLNfed5MXUvJg,DORADO Tacos & Quesadillas,Mexican,"'152 West 52nd St New York, NY 10019'",40.762577,-73.981442,2,4.5,2023-02-26 00:32:34.738058
NqF5klmeAW2By3nTR1_tbw,¡AY GÜEY! Cantina Y Cocina,Mexican,"'30-86 51st St Woodside, NY 11377'",40.757493,-73.90775639398036,7,5.0,2023-02-26 00:32:34.738071
4zBGXDXg9DzK0IROwCUeFg,Cowgirl Seahorse,Mexican,"'259 Front St New York, NY 10038'",40.708202066794655,-74.00046681382616,655,3.5,2023-02-26 00:32:34.738086
POGfmcCkuLpkP_Vz98DuwQ,Caliente Cab,Mexican,"'61 7th Ave S New York, NY 10014'",40.7318059,-74.0035903,944,3.0,2023-02-26 00:32:34.738099
UBqLK5kg0kT72CIaBYa5Zg,Patron Mexican Grill,Mexican,"'608 9th Ave New York, NY 10036'",40.75923,-73.99173,482,3.5,2023-02-26 00:32:34.738111
-kVueEw_fyO1Q2Gkmj6Few,Taqueria Santa Fe,Mexican,"'4708 47th Ave Woodside, NY 11377'",40.740766,-73.917876,412,4.5,2023-02-26 00:32:34.738123
i34wlziIjT8lHgUN1o0ToQ,The Shakespeare,Mexican,"'24 E 39th St New York, NY 10016'",40.7506062,-73.9801755,384,4.0,2023-02-26 00:32:34.738135
pcQ9ld7xuX9EXTCAoakkbQ,Tacombi,Mexican,"'74 Broad St New York, NY 10004'",40.70468776591344,-74.0116733,118,4.0,2023-02-26 00:32:34.738148
rkTJsacxaZ3pU0g8AJmr0A,The Copper Still Chelsea,Mexican,"'206 7th Ave New York, NY 10011'",40.7433018973893,-73.9962961112732,101,4.0,2023-02-26 00:32:34.738160
4QVG74AmkmhjE63-gwyWow,Mexican Deli,Mexican,"'2711 Broadway New York, NY 10025'",40.799684,-73.968647,42,4.0,2023-02-26 00:32:34.738173
JXcYD52B4190gIh6_RSXCg,Lilly's Craft and Kitchen,Mexican,"'675 9th Ave New York, NY 10036'",40.76138,-73.99071,1375,4.0,2023-02-26 00:32:34.738185
ox1Q1niAxCRRigUuDybtAw,Planet Taco,Mexican,"'705 9th Ave New York, NY 10019'",40.76253,-73.98987,39,4.0,2023-02-26 00:32:34.738196
4ttqjZMCsfz6X0kQ_KR0xQ,Orale Mexican Kitchen,Mexican,"'341 Grove St Jersey City, NJ 07302'",40.720536,-74.042976,1292,4.0,2023-02-26 00:32:34.738208
_5G0SOM1ogWTsSmPBGRfzA,El Gallo Taqueria,Mexican,"'214 Highlawn Ave Brooklyn, NY 11223'",40.6035151454871,-73.9779098353486,336,4.0,2023-02-26 00:32:34.738220
JYNBy2r3LVhJbLHE1bASfg,The Smith,Mexican,"'1900 Broadway New York, NY 10023'",40.7716201269986,-73.9818377981476,2039,4.0,2023-02-26 00:32:34.738233
W87C7jAakZL1GkV5kzb5XA,Pinks Cantina,Mexican,"'203 Chrystie St New York, NY 10002'",40.72229,-73.99189,32,4.0,2023-02-26 00:32:34.738245
r0Krxbk7O1KRjgvOYMHMug,EL Gallo Taqueria,Mexican,"'369 Broome St New York, NY 10013'",40.719886,-73.995982,70,4.0,2023-02-26 00:32:34.738256
fc61TdsmBK_iX67P_gI-YA,Jicama NYC,Mexican,"'894 Ave Of The Americas New York, NY 10001'",40.74826,-73.988506,20,3.5,2023-02-26 00:32:34.738268
x8UoT9ODOMcpLdYh__sXjg,Esquina Tequila,Mexican,"'40-01 Northern Blvd Long Island City, NY 11101'",40.75285,-73.92371,55,3.5,2023-02-26 00:32:34.738280
BZcG-xN3DCxlfhckBZYeuw,Pio Pio 7,Mexican,"'210 E 34th St New York, NY 10016'",40.74534,-73.97761,869,4.0,2023-02-26 00:32:34.738292
WSjhU85kBSvidxDJaBTV1g,Chinelos Tacos NYC,Mexican,"'4-09 Center Blvd Queens, NY 11101'",40.7423518016186,-73.9599615129021,70,4.5,2023-02-26 00:32:34.738304
Jh6bSOaw0ftGh9ONiwr7nA,Los Tres Chilitos,Mexican,"'456 Central Ave Jersey City, NJ 07307'",40.75021,-74.04619,232,4.0,2023-02-26 00:32:34.738316
Ve6GVzzJpR5QIIPdcn6ViQ,Mercato,Mexican,"'352 W 39th St New York, NY 10018'",40.75619,-73.9937,1026,4.0,2023-02-26 00:32:34.738328
2jjxdN9FXWVdx6DEX83krQ,Hoja Santa,Mexican,"'40-17 30th Ave Astoria, NY 11103'",40.7638197,-73.914523,107,4.5,2023-02-26 00:32:34.738339
53zd9Zi8EKMpLd6OXNm8Mw,Emporium Brasil,Mexican,"'15 W 46th St New York, NY 10036'",40.75653,-73.97989,291,4.0,2023-02-26 00:32:34.738351
PGpCaNkB1meojnbgRmb2gQ,Buena Vista Restaurant & Bar,Mexican,"'536 9th Ave New York, NY 10018'",40.75686,-73.99356,335,4.5,2023-02-26 00:32:34.738362
iVkmxelFstmARvMbrVhlIQ,Viva Toro,Mexican,"'987 Grand St Brooklyn, NY 11211'",40.713503,-73.935366,83,3.5,2023-02-26 00:32:34.738375
wO9FMvtYqsJoYrnHDASE0A,Don Pancho Villa Restaurant,Mexican,"'189 Borinquen Pl Brooklyn, NY 11211'",40.7109108,-73.9528503,355,3.5,2023-02-26 00:32:34.738387
unWoFZeSWa0DK1YMekO_Uw,Trademark Bar + Kitchen,Mexican,"'38 W 36th St New York, NY 10018'",40.7503233942813,-73.9855566306885,714,4.5,2023-02-26 00:32:34.738400
hyKnC3_a86vaY2iZUkygWw,El Mariachi Restaurant,Mexican,"'3311 Broadway Astoria, NY 11106'",40.7611304286653,-73.9233571500763,249,3.5,2023-02-26 00:32:34.738413
wgAnpM65vrCN4sCVbfFVng,Bar Bruno,Mexican,"'560 Manhattan Ave Brooklyn, NY 11222'",40.72236,-73.94984,13,4.5,2023-02-26 00:32:34.738425
difsr3Yw5VVY0FyIu6Un4g,The Garret Nolita,Mexican,"'349 Broome St New York, NY 10013'",40.719724744789,-73.9950288411429,29,3.5,2023-02-26 00:32:34.738438
tgELgg-JikDl3jJvqIxztw,Veracruzano,Mexican,"'3019 Astoria Blvd New York, NY 11102'",40.7702601,-73.9183536,3,4.5,2023-02-26 00:32:34.738450
TYVIfbcJ3YT4CP1roKMshg,Lucy's Cantina Royale,Mexican,"'1 Penn Plz New York, NY 10119'",40.751757506263,-73.9928958215327,803,2.5,2023-02-26 00:32:34.738463
veeKjzzHsO9e4wKLxpuhtQ,El Rey Del Taco Truck,Mexican,"'33-01 30th Ave Astoria, NY 11103'",40.76622,-73.91933,503,4.5,2023-02-26 00:32:34.738475
rwr5mV9UfDu1IqpAvgfP8Q,Dulce Cultura,Mexican,"'4220 31st Ave Astoria, NY 11103'",40.7603126,-73.9152853,47,4.5,2023-02-26 00:32:34.738487
2iqsjuh8Mpm_3p6s-G9zkQ,Taqueria Tlaxcalli,Mexican,"'2103 Starling Ave Bronx, NY 10462'",40.83624,-73.854962,743,4.5,2023-02-26 00:32:34.738499
La0m0JQirzld8XSyyf37tg,Barcelona Bar,Mexican,"'923 8th Ave New York, NY 10019'",40.765356,-73.984113,464,4.0,2023-02-26 00:32:34.738510
-yR4PHWqpkrPopwv4wrC5g,Taquerias Veracruz,Mexican,"'434 51st St West New York, NJ 07093'",40.783243,-74.019794,35,4.0,2023-02-26 00:32:34.738522
nQbg75zU2xMjRZ964jR19w,Cafe De Olla  Antojitos y Chucherias,Mexican,"'38-07 Broadway Astoria, NY 11103'",40.759371,-73.919297,33,4.5,2023-02-26 00:32:34.738534
eCD1l-Xx3QqnhrSsoccgMg,Tacocina,Mexican,"'25 River St Brooklyn, NY 11249'",40.715238,-73.967644,125,3.5,2023-02-26 00:32:34.738546
kvvrtHlCn-QFVu71_l6VAA,Bitol Mexican Kitchen & Handcrafted Cantina,Mexican,"'1061 Bloomfield Ave Lot 1 Clifton, NJ 07012'",40.84111134955965,-74.15992002613847,149,4.0,2023-02-26 00:32:34.738559
9qOUxAQD6Tasr9TVUlSvdg,Los Amigos Mexican Restaurant,Mexican,"'2273 31st St Astoria, NY 11105'",40.7744827270508,-73.9123611450195,143,3.0,2023-02-26 00:32:34.738634
VoEB81AQajTsatt56aiTLA,Dos Toros Taqueria,Mexican,"'119 W 40th St New York, NY 10018'",40.7540578242766,-73.9859579131007,90,3.5,2023-02-26 00:32:34.738651
aIigHZBgXDHXalBZMRHsvg,Gringo's,Mexican,"'12 Coles St Jersey City, NJ 07302'",40.7216329213934,-74.0476842694786,607,3.5,2023-02-26 00:32:35.877043
JywbRdA7yskb-06WbjUjKw,Paquito's,Mexican,"'143 1st Ave New York, NY 10003'",40.728144,-73.985217,283,3.5,2023-02-26 00:32:35.877072
uGUXV74PbdcYeHEqntDh2w,Hidalgo Mexican Food,Mexican,"'3511 Vernon Blvd Astoria, NY 11106'",40.763377,-73.941449,35,4.0,2023-02-26 00:32:35.877086
-SYHh9DWvYuBZxkA4gfzHg,Calabrije's Margaritas & Tacos,Mexican,"'234 Starr St Brooklyn, NY 11237'",40.7055429619569,-73.9225539192783,158,4.0,2023-02-26 00:32:35.877101
o0N93sxw6jK4-SZP0Ksn3A,El Buen Gusto Restaurant,Mexican,"'30-85 14st Astoria, NY 11102'",40.768729,-73.93146,12,4.5,2023-02-26 00:32:35.877122
fVslDZ8dGsVmcRhS0R0kFg,Huertas,Mexican,"'107 1st Ave New York, NY 10003'",40.726856,-73.986251,343,4.0,2023-02-26 00:32:35.877135
fscHJxuHTEDmaLxKaVDeww,Little Tijuana,Mexican,"'538 Market St Newark, NJ 07105'",40.73171,-74.15518,300,3.5,2023-02-26 00:32:35.877147
mhKehfFER2faDSsWzynklQ,Skinny’s Cantina On the Hudson,Mexican,"'701 W 133rd St New York, NY 10027'",40.8203,-73.95896,88,3.0,2023-02-26 00:32:35.877159
KX7-L2PTl_ZM1ufx2tVVVA,Taqueria Mexicana,Mexican,"'7024 Bergenline Ave North Bergen, NJ 07047'",40.7965563,-74.0103249,71,3.0,2023-02-26 00:32:35.877173
J6EsXebZbacSOoIjpQRocQ,Baby Brasa,Mexican,"'173 7th Ave S New York, NY 10014'",40.73595,-74.0012,976,3.5,2023-02-26 00:32:35.877186
13jzN6n45XtcbYA46nWThg,The Bar Downstairs and Kitchen,Mexican,"'485 5th Ave New York, NY 10017'",40.7528813879886,-73.9810645580292,387,4.0,2023-02-26 00:32:35.877198
MLJsyE42tx4R3wKp2eqnRQ,Blue Moon Mexican Café,Mexican,"'23 E Palisade Ave Englewood, NJ 07631'",40.893662,-73.97408,606,3.5,2023-02-26 00:32:35.877211
vsQjfOXS10MQ8_CZ3amhVQ,Downtown Bakery Cocina Mexicana,Mexican,"'69 1st Ave New York, NY 10003'",40.72543,-73.98711,276,4.0,2023-02-26 00:32:35.877224
9pMhRYYgV7E9L7pzECtJKA,The Drunken Munkey - UES,Mexican,"'338 E 92nd St New York, NY 10128'",40.78098,-73.94751,1291,4.5,2023-02-26 00:32:35.877237
iV4Qm5DnGChgrnbYG20ASw,Sombrero Restaurant,Mexican,"'303 W 48th St New York, NY 10036'",40.7611200213432,-73.9870921522379,416,3.0,2023-02-26 00:32:35.877250
GauXFEjAMUY1cy-Hr3aWuA,Mezcal Kitchen JC,Mexican,"'665-A Newark Ave Jersey City, NJ 07306'",40.73428,-74.0591,149,4.0,2023-02-26 00:32:35.877262
YI8UuwEIVbJ5cVQO7QKWbA,Homemade Taqueria,Mexican,"'999 Columbus Ave New York, NY 10025'",40.8012,-73.96119,18,4.0,2023-02-26 00:32:35.877274
ve78MsETSSr4f_9yc3wmwA,Astoria Taco Factory,Mexican,"'28-02 21st St Astoria, NY 11102'",40.77118,-73.9272,82,4.5,2023-02-26 00:32:35.877286
ejghbDOd5ipvlvhYotdSxw,Sweet Annie's Bar & Eatery,Mexican,"'986 2nd Ave New York, NY 10022'",40.756177601640346,-73.9672357,19,4.5,2023-02-26 00:32:35.877299
veku2cg2qaV-7MxwhOMBmg,Judge Roy Bean Public House,Mexican,"'38 W 56th St New York, NY 10019'",40.7629158108786,-73.9761248066812,855,4.5,2023-02-26 00:32:35.877313
NMvGg6AwvEMUEjIF1z9Ghw,Puebla,Mexican,"'88 Essex St New York, NY 10002'",40.717988,-73.988314,34,3.5,2023-02-26 00:32:35.877326
wTCR-EUTLX4UoPUPdxWVJg,Blend,Mexican,"'47-04 Vernon Blvd Long Island City, NY 11101'",40.745501252327045,-73.9534122021161,966,4.0,2023-02-26 00:32:35.877339
6JWyeRFhl49-CCglEPwxIQ,Birria Mania,Mexican,"'7508 3rd Ave Brooklyn, NY 11209'",40.63122207687712,-74.02808276817136,97,4.0,2023-02-26 00:32:35.877352
b_3yI7FXcIle71lD9Tulww,Guajillo,Mexican,"'2277 1st Ave New York, NY 10035'",40.7967861606349,-73.934840150695,57,4.5,2023-02-26 00:32:35.877366
5fUY5sq00VMPdb1SDJWBug,New Mexico Place,Mexican,"'189 Graham Ave Brooklyn, NY 11206'",40.70851,-73.94356,214,3.5,2023-02-26 00:32:35.877378
pil3w2-2REoXBwEToYZ_tQ,Bar Moga,Mexican,"'128 W Houston St New York, NY 10012'",40.72787,-74.00107,288,4.0,2023-02-26 00:32:35.877390
jQjQHNAM8xXB73kFkfg9kA,Tacos Cholula,Mexican,"'25 Ave A New York, NY 10009'",40.72301,-73.98605,161,4.5,2023-02-26 00:32:35.877401
DHFEpeJXemrdxIuGGcyurg,De Mole,Mexican,"'4502 48th Ave Woodside, NY 11377'",40.7391932,-73.9202624,658,4.0,2023-02-26 00:32:35.877413
Uut2fBy53XdIgx1rLWdQeg,Empanada Mama L.E.S,Mexican,"'95 Allen St New York, NY 10002'",40.71873,-73.9909,905,4.0,2023-02-26 00:32:35.877425
J7hRmPAGnOcd2OJsN_eV9g,El Mariachi Restaurant,Mexican,"'6712 Roosevelt Ave Woodside, NY 11377'",40.7460442,-73.8978364,58,4.0,2023-02-26 00:32:35.877437
YKfj-CUjgb9xQ1kN_bhNLg,Forget Me Not,Mexican,"'138 Division St New York, NY 10002'",40.714498871349,-73.9915559401866,207,4.0,2023-02-26 00:32:35.877450
z_emTJ2d3kDEe8mz3w-KNw,Alta Calidad,Mexican,"'552 Vanderbilt Ave Brooklyn, NY 11238'",40.680141,-73.968248,253,4.0,2023-02-26 00:32:35.877462
OwpRLG5SmzMn14WDvE9trQ,Taqueria Pa Los Dioses,Mexican,"'3203 31st Ave Astoria, NY 11106'",40.76401,-73.92234,20,4.5,2023-02-26 00:32:35.877474
UTTxDG-UMiYILV9QruuYjg,Mama’s Cantina,Mexican,"'45-01 Ditmars Blvd Queens, NY 11105'",40.770953404988845,-73.90287409999999,7,4.0,2023-02-26 00:32:35.877487
FhPAf4w6t0KsujSQBHH_-w,Taqueria Casa Imelda,Mexican,"'82 S 4th St Brooklyn, NY 11249'",40.712405,-73.964871,33,4.5,2023-02-26 00:32:35.877501
vEMveTHn23hdT2_FhV7ctQ,Las Panteras Negras,Mexican,"'2130 2nd Ave New York, NY 10029'",40.79279,-73.9405,69,4.5,2023-02-26 00:32:35.877513
7xY3vxBy7yFF5dVAi-6hPQ,Pipo's Mexican Restaurant,Mexican,"'166 E 118th St New York, NY 10035'",40.7994318892483,-73.9398034173906,74,4.0,2023-02-26 00:32:35.877525
9A2cDPA78es4Ecjd6VFZcA,Nenes Deli Taqueria,Mexican,"'14 Starr St Brooklyn, NY 11237'",40.70018,-73.92781,160,4.5,2023-02-26 00:32:35.877538
pEvmbfy3iXKstIcHCRyVTQ,Mexico Lindo Food Truck,Mexican,"'New York, NY 10022'",40.758634981090836,-73.96786941087863,1,5.0,2023-02-26 00:32:35.877551
mvnxV9bn53vb9kJ0DujQLQ,La Barca Cantina,Mexican,"'Pier 81 W 41 St & 12th Ave New York, NY 10036'",40.76131,-74.00194,97,3.5,2023-02-26 00:32:35.877563
LWHHNai3yu6ovrf4Bcepjg,Birria Landia Williamsburg,Mexican,"'495 Metropolian Ave Brooklyn, NY 11211'",40.71390489837251,-73.95196261271435,216,4.5,2023-02-26 00:32:35.877576
rrL05CECQO4sQXCc5BF90g,Mercado Little Spain,Mexican,"'10 Hudson Yards New York, NY 10001'",40.752435,-74.001475,515,3.5,2023-02-26 00:32:35.877589
OsnvNfvVnpjnFklon1s-vg,La Chula,Mexican,"'137 E 116th St New York, NY 10029'",40.79882,-73.94168,237,4.0,2023-02-26 00:32:35.877601
mykhv_-D5kREsbwCjeB1AA,Los Compadres,Mexican,"'1224 Anderson Ave Fort Lee, NJ 07024'",40.83981,-73.98118,199,4.5,2023-02-26 00:32:35.877613
q__dTB3y_aMwoqhDsg8ImQ,The Great Burrito,Mexican,"'10 Hilliard Ave Edgewater, NJ 07020'",40.82605,-73.974592,240,4.0,2023-02-26 00:32:35.877624
XghOzJn16M-nvaKMOdC5og,Verlaine,Mexican,"'110 Rivington St New York, NY 10002'",40.720079,-73.987785,1496,4.0,2023-02-26 00:32:35.877636
2ewrI499NSsA1sNX30K5Dg,Lunera Latin Fusion Restaurant Bar,Mexican,"'3225 Steinway St Astoria, NY 11103'",40.7582236,-73.9194022,142,4.0,2023-02-26 00:32:35.877648
PWFK0nvJ23Xkk_B4C5Q4Aw,Factory Tamal,Mexican,"'34 Ludlow St New York, NY 10002'",40.7159773,-73.9903625,126,4.5,2023-02-26 00:32:35.877661
xlv_CcDXH1hkG4Wq5mECkQ,Vamos Al Tequila,Mexican,"'162 Franklin St Brooklyn, NY 11222'",40.73079,-73.95753,321,3.5,2023-02-26 00:32:35.877672
6CEVkAlYw9W_ZHOuNylr8w,Home Made Taqueria,Mexican,"'517 Meeker Ave Brooklyn, NY 11222'",40.720638,-73.943909,25,4.5,2023-02-26 00:32:35.877684
FizBsTIAJwNrImIG1mPDcg,Barn Joo,Mexican,"'35 Union Sq W New York, NY 10003'",40.73684,-73.99069,1855,4.0,2023-02-26 00:32:37.357830
P3NfoMjBy_o2BTNNZ-5okg,Apotheke,Mexican,"'9 Doyers St New York, NY 10013'",40.71440617040858,-73.99817232132496,1514,3.5,2023-02-26 00:32:37.357861
XsElXaLxUPKquI78poB8yw,Maison Pickle,Mexican,"'2315 Broadway New York, NY 10024'",40.7870473,-73.9781361,1597,4.0,2023-02-26 00:32:37.357876
UwZtUMsxS-mwWpeZnrO49g,Chinantla,Mexican,"'657 Myrtle Ave Brooklyn, NY 11205'",40.69464,-73.95747,122,4.0,2023-02-26 00:32:37.357944
jKaR8TTkLBAFmMIsKU786g,Pio Pio 3,Mexican,"'1746 First Ave New York, NY 10128'",40.77959,-73.947,809,4.0,2023-02-26 00:32:37.357960
yIWKtjt9v0m7i8mKBQlsug,La Casa de Julia,Mexican,"'64-09 Roosevelt Ave Woodside, NY 11377'",40.74618,-73.89954,12,4.0,2023-02-26 00:32:37.357972
yv62UKpzZNJCPiuiwNibNg,Charro Mexicano Restaurant & Bakery,Mexican,"'7212 Bergenline Ave North Bergen, NJ 07047'",40.7976921462856,-74.0095881745219,19,4.0,2023-02-26 00:32:37.357986
Ck4qyOc_m6uxz0uC3l-NTA,El Paso Restaurante Mexicano,Mexican,"'123 E 110th St New York, NY 10029'",40.7952932513683,-73.9451895260037,43,4.0,2023-02-26 00:32:37.358000
36NGJ_vn81vgdSi15WyHKQ,Puerto Vallarta Restaurant,Mexican,"'7721 John F Kennedy Blvd W North Bergen, NJ 07047'",40.8032128178057,-74.0123075991869,83,3.5,2023-02-26 00:32:37.358014
C-8mGN7lt5rIraO5n-15ug,The Smith,Mexican,"'956 2nd Ave New York, NY 10022'",40.755165,-73.967868,3072,4.0,2023-02-26 00:32:37.358027
vj-kTW34lV2ePesZRUUy0Q,Taqueria Mariposa Rosa,Mexican,"'55 Grove St New York, NY 10014'",40.733207,-74.0035415,7,4.5,2023-02-26 00:32:37.358039
2IrwjU67gguqLqQqZ1nFPg,Guadalupe Restaurant,Mexican,"'597 W 207th St New York, NY 10034'",40.86739,-73.92083,737,4.0,2023-02-26 00:32:37.358052
60KTvpWASee4CecRsEfXYw,Black Flamingo,Mexican,"'168 Borinquen Pl Brooklyn, NY 11211'",40.710491,-73.954136,236,4.0,2023-02-26 00:32:37.358064
F76RYME8VeIIJDkVCOe0rg,Tequila Chito's Mexican Grill,Mexican,"'358 W 23rd St New York, NY 10011'",40.7460136413574,-74.0009002685547,237,2.5,2023-02-26 00:32:37.358076
0gg9v2DnXapTA6YJm3JMkQ,Cañave,Mexican,"'4716 Broadway New York, NY 10040'",40.86445,-73.9289,135,4.0,2023-02-26 00:32:37.358089
qUkFTWe0D2fq63qfiXDpzg,Viva Mexico,Mexican,"'1603 Bergenline Ave Union City, NJ 07087'",40.762581,-74.0358765043285,34,4.5,2023-02-26 00:32:37.358102
A8qXfx_LBI6fnOhxDmvIOA,Sabor A Mexico,Mexican,"'1744 1st Ave New York, NY 10128'",40.77953,-73.94704,159,3.5,2023-02-26 00:32:37.358114
AL6fZwfds_gVsKgCha4oMg,After Life,Mexican,"'983 Flushing Ave New York, NY 11206'",40.70303,-73.93338,4,4.5,2023-02-26 00:32:37.358126
529zJk9IcMZt4txd6ITTCA,Hungry Burrito,Mexican,"'510 Morgan Ave Brooklyn, NY 11222'",40.72164,-73.93835,26,4.0,2023-02-26 00:32:37.358137
_URXTaYBbd2XX5qJbDkKAg,Tacos Morelos,Mexican,"'183 Bedford Ave Brooklyn, NY 11222'",40.717799,-73.957446,100,4.0,2023-02-26 00:32:37.358149
JMSWqPJRkRJ0psgZColZ3g,Agave,Mexican,"'688 Columbus Ave New York, NY 10025'",40.79131894783672,-73.96882200427386,27,3.0,2023-02-26 00:32:37.358162
9MWmRzKbw6-OR8O1fYa2fw,Tacos El Bronco,Mexican,"'37th St & 5th Ave Brooklyn, NY 11232'",40.65237,-74.00274,201,4.5,2023-02-26 00:32:37.358174
np3418w9nDNUZLaMTONHFg,Dirty Taco GCT,Mexican,"'89 E 42nd St New York, NY 10017'",40.75239,-73.97787,20,4.5,2023-02-26 00:32:37.358185
lhEzTykkqFz92Vq2uILtyw,The Wren,Mexican,"'344 Bowery New York, NY 10012'",40.7263350655,-73.9920476876,609,4.0,2023-02-26 00:32:37.358198
_ay580EYYsobmsQn185hhg,Brujos - Brooklyn Taco,Mexican,"'333 Graham Ave Brooklyn, NY 11211'",40.7143008,-73.944522,31,4.5,2023-02-26 00:32:37.358210
bwvd5ZwBTXdpCwJktU-P8g,Sabor A Veracruz,Mexican,"'6415 Bergenline Ave West New York, NJ 07093'",40.79295,-74.01361,177,4.0,2023-02-26 00:32:37.358222
1raNn0l3I4H9PcAJce69Sw,Sojourn,Mexican,"'244 E 79th St New York, NY 10075'",40.77343,-73.95568,704,4.0,2023-02-26 00:32:37.358233
x4W0rufd01dP8ieMhlTqmQ,Dos Toros Taqueria,Mexican,"'668 6th Ave New York, NY 10010'",40.7413,-73.99359,69,3.5,2023-02-26 00:32:37.358245
V7_IQ1ab69JilAlgrSnMXg,L Encanto D Lola,Mexican,"'57 Lenox Ave New York, NY 10026'",40.8001464434346,-73.9511863565111,283,3.5,2023-02-26 00:32:37.358258
8zDdTqBIxXNcEFY63C8rWQ,Seamore's  Market Bar,Mexican,"'152 W 52nd St New York, NY 10019'",40.762577,-73.981442,22,4.5,2023-02-26 00:32:37.358270
zGtR4FNGDD1EjdxIzKF-HA,Pio Pio 6,Mexican,"'702 Amsterdam Ave New York, NY 10025'",40.793007,-73.971535,809,3.5,2023-02-26 00:32:37.358282
DJZb-eI1qBBKLCveUwUUSw,Tacos y Quesadillas,Mexican,"'1 Lincoln Center Plz New York, NY 10023'",40.77107203303935,-73.9818828294465,1,5.0,2023-02-26 00:32:37.358295
9BzRiWO6PSdR-l3dzCm3VA,Buceo 95,Mexican,"'201 W 95th St New York, NY 10025'",40.793613,-73.971112,475,4.0,2023-02-26 00:32:37.358307
ISxL2HWJNCazHAdy5oblJA,Coney Shack,Mexican,"'100 Pearl St New York, NY 10004'",40.76140851579951,-73.98063545283277,305,4.5,2023-02-26 00:32:37.358320
u9xVzV1OZC5pwtUgaHLM-A,El Kallejon,Mexican,"'209 E 117th St New York, NY 10035'",40.798538,-73.938805,339,4.5,2023-02-26 00:32:37.358332
Fp2QuKOu_zCjOxbyCLfnjw,El Rey Restaurant,Mexican,"'25-21 Astoria Blvd Astoria, NY 11102'",40.77137,-73.92198,84,3.5,2023-02-26 00:32:37.358344
UmFhqdkv1cgUifxSP5KN9Q,El Mole Poblano,Mexican,"'4316 New York Ave Union City, NJ 07087'",40.77794,-74.02301,13,3.5,2023-02-26 00:32:37.358356
B-bx4pZXrat0D25vde2bJQ,Cantina Taqueria & Tequila Bar,Mexican,"'329 Lenox New York, NY 10027'",40.8088408787201,-73.9449808870425,297,3.5,2023-02-26 00:32:37.358368
1LIptXhtDh58vAA-QPFL4w,Cask,Mexican,"'167 E 33rd St New York, NY 10016'",40.745414,-73.979004,1463,4.0,2023-02-26 00:32:37.358381
HqI1ROCmZa2THlBxT9nyrA,Las Palmas Restaurant,Mexican,"'3891 Broadway New York, NY 10032'",40.8377037,-73.9425248,190,4.0,2023-02-26 00:32:37.358393
zBORlLYwMqqJ_GOX6K31mw,Pedro's Mexican Bar & Restaurant,Mexican,"'73 Jay St Brooklyn, NY 11201'",40.702523,-73.986503,535,2.5,2023-02-26 00:32:37.358405
KUai8GdkU-Oc2DjlRzy1dQ,Tacos Rosita,Mexican,"'4-99 44th Dr Long Island City, NY 11101'",40.74984,-73.9553,5,4.0,2023-02-26 00:32:37.358417
MuQC1DiJl6yz1j_qfIBvCQ,IXTA Cocina Mexicana + Mezcal Bar,Mexican,"'299 Bowery New York, NY 10003'",40.724428,-73.992123,30,3.5,2023-02-26 00:32:37.358429
2PtfXynpdnJ2d4HwzZTLEA,The Mictlan,Mexican,"'137 48th St Union City, NJ 07087'",40.779578,-74.017654,4,4.0,2023-02-26 00:32:37.358441
Xu8H24NxJJxEE-9wGp_AMA,The Brazen Tavern,Mexican,"'356 W 44th St New York, NY 10036'",40.7593269348145,-73.9913101196289,424,4.5,2023-02-26 00:32:37.358453
ox36ejKIJqE0lALCiZu0IA,El Patron,Mexican,"'194-01 Northern Blvd Flushing, NY 11358'",40.7581599,-73.78747,758,3.5,2023-02-26 00:32:37.358466
SH3ZyDP30_WTsU4gXaAgHw,Tortazo,Mexican,"'1441 Broadway New York, NY 10018'",40.754987,-73.987176,10,4.0,2023-02-26 00:32:37.358477
1ux5rxwWjKxoXHUyGynwSg,Purepecha,Mexican,"'213 Smith St Brooklyn, NY 11201'",40.68454335716857,-73.99182679347962,84,4.5,2023-02-26 00:32:37.358490
vpWPgusmUD0cYNKf0uEQIw,Cemitas El Tigre,Mexican,"'45-14 48th Ave Sunnyside, NY 11377'",40.7391913,-73.9198491,272,4.5,2023-02-26 00:32:37.358502
csqCqu6G8pUIoyuwsFnkxQ,Taqueria Santa Fe ,Mexican,"'2248 1st Ave New York, NY 10029'",40.79561,-73.93548,15,4.5,2023-02-26 00:32:37.358514
NcHnZbq06y9llCt6ayf_Jw,Sweet Chick,Mexican,"'46-42 Vernon Blvd Long Island City, NY 11101'",40.74578,-73.95339,411,4.0,2023-02-26 00:32:38.408143
zKHwwoB7h44xoEYoZ_oyDg,La Casita Mexicana,Mexican,"'6236 Forest Ave Ridgewood, NY 11385'",40.7124731442202,-73.906003152248,67,4.5,2023-02-26 00:32:38.408174
w1TO4XzCVh-wESRRGQiiRw,Martha's Cocina Mexicana,Mexican,"'338 Franklin Ave Brooklyn, NY 11238'",40.68753,-73.95709,23,4.5,2023-02-26 00:32:38.408190
cRmRAl5HHJcysKBSrHivHA,Lamano Chelsea,Mexican,"'265 W 20th St New York, NY 10011'",40.7433797337789,-73.9994259551167,120,4.0,2023-02-26 00:32:38.408204
iUsk8CPoDyoBmwVdU1_9QQ,Sidewalk Tacos,Mexican,"'Bleecker & Thompson New York, NY 10012'",40.7284088,-73.9996719,34,4.0,2023-02-26 00:32:38.408217
4YeKYQoZHCx2xkbjmNhMbA,Burger One,Mexican,"'1150 Lexington Ave New York, NY 10075'",40.7752780616283,-73.9587344974279,210,4.0,2023-02-26 00:32:38.408231
cCesIqo-LQt0cRlZAnrAZQ,Friedman's,Mexican,"'132 W 31st St New York, NY 10001'",40.74839,-73.99062,2816,4.0,2023-02-26 00:32:38.408243
TlrkRdpXjSG-4RdabVD_PQ,Azteca Taqueria Restaurant,Mexican,"'1313 Summit Ave Union City, NJ 07087'",40.7624358046918,-74.041139075534,13,4.0,2023-02-26 00:32:38.408256
oLp2RDF7UgS_mjnikme5Gg,Torta Truck,Mexican,"'31st St & Bergenline Ave Union City, NJ 07087'",40.77162,-74.02957,30,4.5,2023-02-26 00:32:38.408336
gvMYV5E3HyzhN_MYFIMGzg,El Born,Mexican,"'651 Manhattan Ave Brooklyn, NY 11222'",40.7243479163883,-73.9512226101037,403,4.5,2023-02-26 00:32:38.408352
NqwwyMMXIS-JnwdDQBQT9A,Bazár Tapas Bar & Restaurant,Mexican,"'31 W 26th St New York, NY 10010'",40.744449,-73.990068,728,4.0,2023-02-26 00:32:38.408365
xeICCQ8llekCiKRfuSiVjA,Las Margaritas,Mexican,"'45-17 28th Ave Ste 1 New York, NY 11103'",40.76349,-73.90893,3,5.0,2023-02-26 00:32:38.408378
5AsVCBQoJeTomvaw-_IaUQ,La Taqueria,Mexican,"'572 Grand St New York, NY 11211'",40.7112690867,-73.9489733333,51,4.0,2023-02-26 00:32:38.408391
9ZTyAKZI0cpCbmTYZgNjAA,Santa Clarita,Mexican,"'237 Willis Ave Bronx, NY 10454'",40.809496,-73.922842,25,4.5,2023-02-26 00:32:38.408403
B55Ocx5RBWxo6AGSucYSIA,Ilili,Mexican,"'236 5th Ave New York, NY 10001'",40.74435,-73.98778,2669,4.0,2023-02-26 00:32:38.408415
Xak3sB5LkJgjgYYf6_hQLA,Casa Taqueria,Mexican,"'40 Gold St New York, NY 10038'",40.70875,-74.00583,94,4.0,2023-02-26 00:32:38.408426
EHINHIbLklEUShuANKjGgw,Tomiño Taberna Gallega,Mexican,"'192 Grand St New York, NY 10013'",40.7192978908919,-73.9969160361937,395,4.5,2023-02-26 00:32:38.408439
GojmCdGjUyGPxGLpoxXhvA,Sojourn Social,Mexican,"'1708 2nd Ave New York, NY 10128'",40.77949209708026,-73.95037320493091,61,4.5,2023-02-26 00:32:38.408453
TV_rsstsxdcFh_YmaSSv_g,Jalisco Tacos,Mexican,"'214 St Anns Ave Bronx, NY 10454'",40.80622,-73.91748,20,4.5,2023-02-26 00:32:38.408465
uoT2_Wrt1noD6kZOID7tUg,Jane Restaurant,Mexican,"'100 W Houston St New York, NY 10012'",40.7273779,-74.00025,3476,4.0,2023-02-26 00:32:38.408477
hrswGldQVdR9OJRtqp0TxA,Gonzalez y Gonzalez,Mexican,"'192 Mercer St New York, NY 10012'",40.7261303289736,-73.9972339217213,569,3.5,2023-02-26 00:32:38.408490
h_ITJux-MF0YcmZx8KRHtA,Taco Edition,Mexican,"'800 Grand St Brooklyn, NY 11211'",40.71178928000974,-73.94136376993829,111,4.0,2023-02-26 00:32:38.408503
OICgilPNwolv00z7d1Y37w,Charritos Midtown,Mexican,"'518 Washington St Hoboken, NJ 07030'",40.74287,-74.02957,187,3.0,2023-02-26 00:32:38.408515
jKUF-ts0Et40ri33NDiMDw,Tacos Lokos 4ever,Mexican,"'647 Grand St Brooklyn, NY 11211'",40.71159,-73.946425,23,4.0,2023-02-26 00:32:38.408527
UNX40pcYuNtbAUFE84dgFw,Jams,Mexican,"'1414 6th Ave New York, NY 10019'",40.764741,-73.9765169803648,394,3.5,2023-02-26 00:32:38.408540
0tzK7l-DWDpG5UrYKL_mxw,St James Deli,Mexican,"'34-02 34th Ave Astoria, NY 11106'",40.75843584113,-73.9247259526577,135,4.5,2023-02-26 00:32:38.408553
VJyV-w2BBGTpMOBEzqvfNg,Frida's Favorites,Mexican,"'476 5th Ave New York, NY 10018'",40.753204,-73.982269,2,4.0,2023-02-26 00:32:38.408565
tJHmKLn1lWpaPuZTZrDgsA,Havana NY,Mexican,"'58 W 38th St New York, NY 10018'",40.75189,-73.98517,357,4.0,2023-02-26 00:32:38.408576
6a1AeJB9XYKbneoMWcCzfQ,Claudia's,Mexican,"'39 Bushwick Ave Brooklyn, NY 11211'",40.71354,-73.9413,188,4.5,2023-02-26 00:32:38.408588
P0mdWVHjsKMDF3NKeR0Weg,La Fortaleza -Carlstadt,Mexican,"'335 Paterson Plank Rd Carlstadt, NJ 07072'",40.83033616424823,-74.08366475254297,186,3.0,2023-02-26 00:32:38.408600
nuRIrOeApLzM2_Kedx-KEA,Antojitos Puebla,Mexican,"'5615 Hudson Ave West New York, NJ 07093'",40.7852725106119,-74.0142796933651,2,5.0,2023-02-26 00:32:38.408614
26E3j9l0XW_onVIUP-ThCw,Heidi's House By The Side Of The Road,Mexican,"'308 E 78th St New York, NY 10075'",40.772189,-73.955029,652,4.5,2023-02-26 00:32:38.408626
UF9F0A4e7AJHzNPG5zrHUQ,The Beast Next Door,Mexican,"'42-51 27th St Long Island City, NY 11101'",40.74881,-73.94073,250,4.5,2023-02-26 00:32:38.408639
I6optu9x0JAf8oT5lqJ8qw,The Blue Dog Cookhouse & Bar,Mexican,"'308 W 50th St New York, NY 10019'",40.76244,-73.98674,1484,4.0,2023-02-26 00:32:38.408651
NwsJoefGn_TXHIOp4qjK0g,Uno Mas,Mexican,"'37-35 Vernon Blvd Long Island City, NY 11101'",40.75966,-73.94356,7,4.5,2023-02-26 00:32:38.408663
g4NwsmgkpdEMRvUmLzVLVA,Victoria's Mexican - American Grill,Mexican,"'201 Main St Little Ferry, NJ 07643'",40.8518846527181,-74.0412875711639,176,4.5,2023-02-26 00:32:38.408675
hxJxybl8V752Uz9r50I41g,Taqueria Al Pastor,Mexican,"'119 Court St Brooklyn, NY 11201'",40.69042,-73.99176,71,4.5,2023-02-26 00:32:38.408688
sbdRT4UyIYTFrXfCKraAhQ,Vera Cruz,Mexican,"'195 Bedford Ave Brooklyn, NY 11211'",40.717292,-73.957939,255,3.5,2023-02-26 00:32:38.408700
Y8ZCMr7vNMspTjEi6VWgxA,Taco Mahal,Mexican,"'653 9th Ave New York, NY 10036'",40.76091684980952,-73.9912468,92,4.0,2023-02-26 00:32:38.408712
U84nYcclkx_LS0kQkCUB9g,The Breakers,Mexican,"'307 Meeker Ave Brooklyn, NY 11211'",40.717535,-73.948872,62,4.0,2023-02-26 00:32:38.408724
kMxXLrASxsbmS-ZzAaBe-A,Molly's,Mexican,"'287 3rd Ave New York, NY 10010'",40.73825,-73.98321,568,4.0,2023-02-26 00:32:38.408735
3LRZQolTdyps07RSoaIXpA,Poco - NYC,Mexican,"'33 Avenue B New York, NY 10009'",40.722524,-73.9829025,1934,3.5,2023-02-26 00:32:38.408747
sDajjybHSYFw8gTVbknPGA,Jack Doyle's Bar & Restaurant,Mexican,"'240 W 35th St New York, NY 10001'",40.752132,-73.991852,368,4.0,2023-02-26 00:32:38.408758
wtIXeqJPqiN9ZtHd8R04oQ,Arcos De Puebla,Mexican,"'255 A Buswick ave Brooklyn, NY 11206'",40.70720333,-73.93948667,14,5.0,2023-02-26 00:32:38.408770
zb45GcwBARV0DndrwAr-9A,Riviera Maya Mexican Cuisine,Mexican,"'252 E Fort Lee Rd Bogota, NJ 07603'",40.8725881057144,-74.0205895900726,318,4.0,2023-02-26 00:32:38.408783
ND2PgVHYAF4IdaV6Zse5hQ,Taqueria al Pastor,Mexican,"'128 Wyckoff Ave Brooklyn, NY 11237'",40.703326,-73.918029,154,4.5,2023-02-26 00:32:38.408796
95a04LtXLX6gePhPEwff9A,Amaranto Mexican Restaurant,Mexican,"'887 Hart St Brooklyn, NY 11237'",40.703111,-73.921892,391,4.5,2023-02-26 00:32:38.408808
_2aXZ9o3Yl_coNw9-IdqMQ,Mi Ranchito,Mexican,"'1468 St Nicholas Ave New York, NY 10033'",40.85081,-73.93243,65,4.0,2023-02-26 00:32:38.408820
e4ZSziGRyYn17eK5svAs9g,TACO DRIVE,Mexican,"'195 Newark Ave Jersey City, NJ 07302'",40.72131471730634,-74.0459879,16,4.5,2023-02-26 00:32:38.408832
ZEQgCciYUXoSOInAGiDfDA,Mexican Fiesta,Mexican,"'44 Drive Jackson Ave New York, NY 11101'",40.747099,-73.942183,4,5.0,2023-02-26 00:32:38.408844
zHzJpwW7fFbkiaS9rIwsFg,Manhattan Tacos Juqilita,Mexican,"'310 Madison Ave New York, NY 10037'",40.7508609269219,-73.9806317165494,2,5.0,2023-02-26 00:32:39.490360
Cn0aZzeIrulN6N4OF7eMdQ,Arriba Arriba Sunnyside,Mexican,"'40-15 Queens Blvd Sunnyside, NY 11104'",40.74413,-73.92352,247,3.5,2023-02-26 00:32:39.490390
-a5EfIQzUrb1pnMQpsvslw,Lolita's Mexican Cantina - North Bergen,Mexican,"'8809 River Rd North Bergen, NJ 07047'",40.80402,-73.99376,592,3.5,2023-02-26 00:32:39.490405
0cgtOfYGHv3stIZb7C9wHQ,La Perla Mexicana,Mexican,"'281 E 149th St Bronx, NY 10451'",40.81739,-73.9221,48,4.0,2023-02-26 00:32:39.490418
8Cv7q5bIKJG06Gw6Y2WYDw,Mexiterranean Grill,Mexican,"'1365 1st Ave New York, NY 10021'",40.768832,-73.955591,20,3.0,2023-02-26 00:32:39.490431
H-EZ1g_3M8oNHctGjnddwQ,Taqueria Viva Mexico Kitchen Cafe,Mexican,"'133 Morris St Jersey City, NJ 07302'",40.7139,-74.04029,375,4.0,2023-02-26 00:32:39.490443
yywIzZlBOAWHCeKqMcB7Gw,Factory Tamal,Mexican,"'63 E 4th St New York, NY 10003'",40.72686,-73.99075,16,4.5,2023-02-26 00:32:39.490455
nDXvWPUWKsITVaRtNCIDew,Flying Burritos,Mexican,"'165 W 4th St New York, NY 10011'",40.7322235107422,-74.0013046264648,2,2.5,2023-02-26 00:32:39.490468
zupIzmhdcH0U6vJQQxDBiQ,Bar Bruno,Mexican,"'520 Henry St Brooklyn, NY 11231'",40.6833674,-73.9997959,307,4.0,2023-02-26 00:32:39.490481
Tt9Mkrgd5Zj_ZJEeU0L7Gg,Bocado Cafe,Mexican,"'1293 Lexington Ave New York, NY 10128'",40.7802514169278,-73.9549089244757,547,3.5,2023-02-26 00:32:39.490494
zwi1iX5X6fCWCKl3wt75fA,La Barbona,Mexican,"'139 W 10th St New York, NY 10014'",40.7348019839623,-74.0007938817143,7,2.5,2023-02-26 00:32:39.490507
Y39SdfmS0Z_GepcFnFqlMA,Eva's x Cinco de Mayo,Mexican,"'113 E 31st St New York, NY 10016'",40.745068,-73.981859,273,4.0,2023-02-26 00:32:39.490519
n9NAUB6ivkk45bUz3nm2AA,Grito Mexican Grill,Mexican,"'1555 Saint Nicholas Ave New York, NY 10040'",40.85355,-73.93087,213,4.0,2023-02-26 00:32:39.490531
s-IzpDx-sFdo-3DMN1SlsQ,Mas Tortilla,Mexican,"'113-27B Queens Blvd Forest Hills, NY 11375'",40.71744,-73.83478,54,4.5,2023-02-26 00:32:39.490582
TleAd45T6-9TP7FBO19dww,TRI Mexican Tacos,Mexican,"'20th St & Broadway New York, NY 10003'",40.73918,-73.98977,10,4.5,2023-02-26 00:32:39.490597
8NVN6Nldm7AGoGaABBZMRw,Izakaya NoMad,Mexican,"'13 W 26th St New York, NY 10010'",40.74409,-73.98945,725,4.0,2023-02-26 00:32:39.490608
evJqF34WN9Bz73j99vDTCQ,Azteca Restaurante Mexican Cuisine,Mexican,"'15 Park Ave Rutherford, NJ 07070'",40.8279655,-74.1017663,284,4.0,2023-02-26 00:32:39.490620
8uuMkezIN1c8zGEWkaMRqg,Los Tacos No. 1,Mexican,"'136 Church St New York, NY 10007'",40.714282,-74.008675,371,4.5,2023-02-26 00:32:39.490633
4sNPRRefpFQl-fE_aU5XaA,Refried Beans Mexican Grill,Mexican,"'591 Fort Washington Ave New York, NY 10033'",40.8549599636967,-73.9370997259323,313,3.5,2023-02-26 00:32:39.490645
oNYP0AFOSw_oZEHkF_f0kQ,Cemitas Puebla,Mexican,"'520 24th St Union City, NJ 07087'",40.7681059022073,-74.033584,195,4.0,2023-02-26 00:32:39.490659
bEloKDe-QVkwakAwmFKbbA,Frying Pan,Mexican,"'207 12th Avenue Big Red Boat in Park New York, NY 10001'",40.7521174043978,-74.0090024471283,1619,4.0,2023-02-26 00:32:39.490671
GlDkm0Pd0Oe_uurhlKM1XQ,Chirp,Mexican,"'369 W 34th St New York, NY 10001'",40.75339,-73.99591,195,4.5,2023-02-26 00:32:39.490684
jfNc9_Of6ojLl4DVG9QKCw,San Pedro Inn,Mexican,"'320 Van Brunt St Brooklyn, NY 11231'",40.67908,-74.01106,42,4.0,2023-02-26 00:32:39.490695
M6XZ8IIOGmBfh79vk79Eqw,Tacombi,Mexican,"'242 Metropolitan Ave Brooklyn, NY 11211'",40.714826088301294,-73.95944510183506,136,4.0,2023-02-26 00:32:39.490708
6NBXf3fOJYL365PoaD2qAA,Manjares Mexico,Mexican,"'4408 Broadway Astoria, NY 11103'",40.7572483,-73.9155682,23,4.0,2023-02-26 00:32:39.490721
hzMrUEgGn9L-hHJEin-New,DC Villanueva,Mexican,"'953 Columbus Ave New York, NY 10025'",40.7996432,-73.9621925,6,5.0,2023-02-26 00:32:39.490732
6403iqg-_a-sdg-DrKEfhw,Birria-Landia,Mexican,"'Roosevelt Ave & 78th St Jackson Heights, NY 11372'",40.747258,-73.887784,504,4.5,2023-02-26 00:32:39.490744
D4vcEbaq1DjFG6FVk26ReQ,La Amistad Pizzeria & Grill,Mexican,"'2067 2nd Ave New York, NY 10029'",40.79098,-73.94241,24,4.5,2023-02-26 00:32:39.490756
rNldYbdOcJRGmLgD29ZELA,Don Panchito,Mexican,"'New York, NY 11211'",40.7154074225537,-73.9603268362965,65,4.0,2023-02-26 00:32:39.490769
buZ1-T3rdV_1d5gHreJD6w,Sullivan Taqueria,Mexican,"'71 Sullivan St New York, NY 10012'",40.72447,-74.0039,24,4.5,2023-02-26 00:32:39.490781
WI9HAeZ5BB1KvEz0mt1ivg,Taco Intenso,Mexican,"'7410 Broadway Ave North Bergen, NJ 07047'",40.796123,-74.003279,74,4.5,2023-02-26 00:32:39.490793
6eihmCzFJvolelWSW7-VPQ,La Esquina Del Camaron Mexicano,Mexican,"'80-02 Roosevelt Ave Jackson Heights, NY 11372'",40.747291587088625,-73.886111,80,4.5,2023-02-26 00:32:39.490806
exRan2_MbIQw_FO74qlmkw,Danish Gourmet Grill,Mexican,"'721 2nd Ave New York, NY 10016'",40.7478645,-73.97387216317705,22,3.5,2023-02-26 00:32:39.490819
_uln4MCsceNH4dCQNoALNQ,Arepas Cafe,Mexican,"'3307 36th Ave Astoria, NY 11106'",40.755835,-73.927691,974,4.0,2023-02-26 00:32:39.490831
hdBhZcdZGHkTESrldAObJg,La Morada,Mexican,"'308 Willis Ave Bronx, NY 10454'",40.810552,-73.92142,176,4.5,2023-02-26 00:32:39.490843
KyOtOluTH8c8SICpf85thg,Mesa Azteca,Mexican,"'91 Wyckoff Ave Brooklyn, NY 11237'",40.70506,-73.92022,298,4.0,2023-02-26 00:32:39.490854
8gZh_1Y2qwXS3x4M5-38uw,Cantina Taqueria & Tequila Bar,Mexican,"'2099 Frederick Douglass Blvd New York, NY 10026'",40.80279,-73.95696,18,3.0,2023-02-26 00:32:39.490865
4KqGAtsXe7FXDRvnRQCjVA,Pioneers,Mexican,"'138 W 29th St New York, NY 10001'",40.7472374,-73.9917016,275,3.5,2023-02-26 00:32:39.490878
gxgrx8SLHBDyyyjLgJUtWg,"Cafe Tola, New York City",Mexican,"'124 MacDougal St New York City, NY 10012'",40.72998,-74.00039,8,5.0,2023-02-26 00:32:39.490890
tgPPzyvBwq0B0jlCkFortA,La Esquina Chapina,Mexican,"'39 Broad Ave Palisades Park, NJ 07650'",40.8434295654297,-74.0014114379883,19,4.0,2023-02-26 00:32:39.490902
BgZHn_QmfcIdA527VnN_qQ,Arepitas,Mexican,"'434 Lafayette St New York, NY 10003'",40.7297209600858,-73.9902131916715,8,4.5,2023-02-26 00:32:39.490916
8Gg_SoA5TA7pLNB-xuPhPw,Mexikosher,Mexican,"'100 W 83rd St New York, NY 10024'",40.78458,-73.97393,87,3.5,2023-02-26 00:32:39.490928
3lLBRLbXAIgd1yZgWgnfeg,Dutch Kills,Mexican,"'27-24 Jackson Ave Long Island City, NY 11101'",40.747615,-73.940159,842,4.0,2023-02-26 00:32:39.490939
YePElOxpcDkI18jk7dyipA,AVO TACO,Mexican,"'212-97 26th Ave Bayside, NY 11360'",40.77865651225938,-73.77673807726373,61,3.5,2023-02-26 00:32:39.490952
W0sXHSSpkiMEDJiBmSLNYQ,Trestle,Mexican,"'34-02 Broadway Astoria, NY 11106'",40.7606154,-73.9229562,514,4.5,2023-02-26 00:32:39.490964
Lq9HxEUrkceCUDut00qlHQ,El Kucho Mexican Restaurant,Mexican,"'141 Wilson Ave Brooklyn, NY 11237'",40.70073,-73.92551,215,4.0,2023-02-26 00:32:39.490975
RvSEZkqi-fQ2k2mIARZhOw,Agave Restaurante,Mexican,"'4317 Bergenline Ave Union City, NJ 07087'",40.7786782042052,-74.0242675691843,16,4.0,2023-02-26 00:32:39.490988
nHMDOIX32dGbfpuNUwsLNQ,AlMar,Mexican,"'111 Front St Brooklyn, NY 11201'",40.702662,-73.989177,491,4.0,2023-02-26 00:32:39.491001
ZKUsI4jtthwp5kFjGm_5KQ,La Catrina Mexican Bistro,Mexican,"'3803 10th Ave New York, NY 10034'",40.862440586635586,-73.92034761801882,11,4.5,2023-02-26 00:32:39.491013
6VRIJ7fHe35-baWzkgZCUg,Tarachi,Mexican,"'222 Greene Ave Brooklyn, NY 11238'",40.686982664018736,-73.9621802,39,4.5,2023-02-26 00:32:39.491026
MTP9i2rqkZf1Tn8-ARTPNA,Guevara's,Mexican,"'39 Clifton Pl Brooklyn, NY 11238'",40.688019,-73.962881,123,4.5,2023-02-26 00:32:40.894885
sCNZGN2Zh1T5hht728hV5Q,Ursula BK,Mexican,"'724 Sterling Pl Brooklyn, NY 11216'",40.67274701896375,-73.9548334,107,4.5,2023-02-26 00:32:40.894916
8gmRUYZIcfmWl0pFB60tpA,Tacos El Vagabundo,Mexican,"'41st St Queens Blvd Sunnyside, NY 11104'",40.743616803586285,-73.92341027976228,94,4.5,2023-02-26 00:32:40.894933
Wm6vj0ekRAzZnaeaBEkOag,Taqueria Downtown,Mexican,"'236 Grove St Jersey City, NJ 07302'",40.716222,-74.044659,2024,4.0,2023-02-26 00:32:40.894947
TPN2at7fMDHxeGYuQdQZVA,Homemade Taqueria - Maspeth,Mexican,"'71-03 Grand Ave Maspeth, NY 11378'",40.72797,-73.89218,326,4.0,2023-02-26 00:32:40.894959
X6A6a8hTPd1pZFNZE80TfA,Tacos Cuautla Morelos,Mexican,"'438 E 9th St New York, NY 10009'",40.7274619080615,-73.9832050287211,139,4.0,2023-02-26 00:32:40.894973
e80JDJkf5WdRe5GorvEcgg,San Loco,Mexican,"'111 Ave C New York, NY 10009'",40.7243318,-73.978931,23,3.5,2023-02-26 00:32:40.894986
7PeLcW2CTzsv4c2l02B6Zg,Takumi Taco,Mexican,"'97 W 32nd St New York, NY 10001'",40.748489,-73.988328,13,4.0,2023-02-26 00:32:40.894998
L_LbQnSB1mPpwLlrCq3vPA,Frijolito's Astoria,Mexican,"'2517 Astoria Blvd Long Island City, NY 11102'",40.771378,-73.922429,12,5.0,2023-02-26 00:32:40.895010
ysUmuTz1ncazyr6Dw1doSg,El Ranchero Taqueria,Mexican,"'382 2nd St Jersey City, NJ 07302'",40.72315501730928,-74.05044715564962,39,4.5,2023-02-26 00:32:40.895023
6k6PRNSLnExNes-iGcu1EA,Taqueria La Nortena,Mexican,"'668 Manhattan Ave Brooklyn, NY 11222'",40.72474,-73.95121,151,3.5,2023-02-26 00:32:40.895036
fJXCMGOhaS6rKGjoGldSSQ,Taqueria Tepango,Mexican,"'568 Myrtle Ave Brooklyn, NY 11205'",40.6937857,-73.9616331,235,4.0,2023-02-26 00:32:40.895048
Me4TxTbPPQZQopW1wOGx5g,Jack's Wife Freda,Mexican,"'226 Lafayette St New York, NY 10012'",40.7221323,-73.9975402,2297,4.0,2023-02-26 00:32:40.895060
W_0AX5JL3QZnX1oQNxQGtw,Xochimilco Family Restaurant,Mexican,"'653 Melrose Ave Bronx, NY 10455'",40.8185645,-73.9168277,125,4.5,2023-02-26 00:32:40.895072
fHMJAA4zGq2XuuIB_EGUjw,Sabor a Mexico,Mexican,"'5101 Bergenline Ave West New York, NJ 07093'",40.7833137512207,-74.020751953125,5,5.0,2023-02-26 00:32:40.895086
hmx8vUMYJPTbfgN8c7A5LA,El Aguila Dorada ,Mexican,"'830 Broadway Bayonne, NJ 07002'",40.6756098548753,-74.1081924349606,365,4.0,2023-02-26 00:32:40.895099
o_r0-1tGDoP_HyEONWKqCw,Mojo Restaurant,Mexican,"'70-20 Austin St Forest Hills, NY 11375'",40.720588,-73.8464128,593,4.0,2023-02-26 00:32:40.895111
Y1dM7kSfq7PoB7NrDQFpdQ,Picante,Mexican,"'3424 Broadway New York, NY 10031'",40.8228372881426,-73.9527709564668,337,3.0,2023-02-26 00:32:40.895178
qZXlH7mYJt_udou9-BhaBA,The Inkan,Mexican,"'4502 23rd St Long Island City, NY 11101'",40.746833,-73.945639,240,4.0,2023-02-26 00:32:40.895193
UhO8ie23AxLyYhA-c8q-mg,Viva Mexico Mexican Restaurant,Mexican,"'1474 86th St Brooklyn, NY 11228'",40.61154,-74.01005,23,4.5,2023-02-26 00:32:40.895205
wouDDTacUIBaRp8YGCFTsA,Colonie,Mexican,"'127 Atlantic Ave Brooklyn, NY 11201'",40.6909,-73.9958,656,4.0,2023-02-26 00:32:40.895217
F89nDDlYZ7wbRe8EpLCqBw,Avra 48th Street,Mexican,"'141 E 48th St New York, NY 10017'",40.755048569901554,-73.97243859999999,999,4.0,2023-02-26 00:32:40.895230
4MHpSTFvsBOutamtEsezjQ,Jauja Mexican Kitchen,Mexican,"'695 Flatbush Ave Brooklyn, NY 11225'",40.656301822272866,-73.95978811165675,49,4.5,2023-02-26 00:32:40.895243
_Pz5L7DGORcaThGB4CWcfg,La Loncheria,Mexican,"'41 Wilson Ave Brooklyn, NY 11237'",40.702921,-73.929105,72,4.5,2023-02-26 00:32:40.895256
fz-d4WXR59kq42a-Lgmb7A,Aldys Restaurant,Mexican,"'804 8th St Union City, NJ 07087'",40.7590884,-74.0436112,19,5.0,2023-02-26 00:32:40.895268
iw5iI-jFXnDZaeiGt4Weaw,Twisted Mexican Grill,Mexican,"'18-33 Astoria Blvd Astoria, NY 11102'",40.772422,-73.9264379,69,4.0,2023-02-26 00:32:40.895279
HqpG67tbPpOZfKfM60pWcA,Social Drink and Food,Mexican,"'570 10th Ave (42nd & Tenth) YOTEL, Fl 4 New York, NY 10036'",40.759178,-73.995461,93,3.5,2023-02-26 00:32:40.895291
pjBDqn25X3The5AhZD3glw,El Zason,Mexican,"'491 Atlantic Ave Brooklyn, NY 11217'",40.6858552,-73.98149149999999,52,4.5,2023-02-26 00:32:40.895305
menL_0IVFYfpuhhgvKuCsQ,Antojitos Mexicanos,Mexican,"'511 West 181st St New York, NY 10033'",40.84863,-73.93144,32,4.0,2023-02-26 00:32:40.895316
Jom-_ISqfmOY-kuOIbp6Lw,El Mas Sabroso,Mexican,"'501W 167th St New York, NY 10032'",40.839532,-73.937564,1,5.0,2023-02-26 00:32:40.895328
herb-gOpfjJGeiYWXb2liw,presto fresh mexican,Mexican,"'429 W 125th St New York, NY 10027'",40.81221,-73.95502,27,4.0,2023-02-26 00:32:40.895340
t3WXZ8U6espLzY5YQ1Ocsg,Cello Wine & Cocktail Bistro,Mexican,"'226 E 53rd St New York, NY 10022'",40.7570686,-73.9684187,209,4.0,2023-02-26 00:32:40.895351
SPvW-SV2Ed7z8k-QXDUIDg,Tacos Matamoros,Mexican,"'4508 5th Ave Brooklyn, NY 11220'",40.6478187840292,-74.0076383498633,615,3.5,2023-02-26 00:32:40.895365
