business_id,name,cuisine,address,latitude,longitude,number_of_reviews,rating,inserted_at_time_stamp
hdiuRS9sVZSMReZm4oV5SA,Da Andrea,Italian,"'35 W 13th St New York, NY 10011'",40.736218,-73.99597,1822,4.5,2023-02-25 21:12:02.339957
VmdyRRMtUXOWV7F7w0ImwQ,Piccola Cucina Uptown,Italian,"'106 E 60th St New York, NY 10022'",40.763174,-73.969046,284,4.5,2023-02-25 21:12:02.339997
16ZnHpuaaBt92XWeJHCC5A,Olio e Più,Italian,"'3 Greenwich Ave New York, NY 10014'",40.733798036104304,-73.99977392649927,4041,4.5,2023-02-25 21:12:02.340017
rp8S7scxOkVVeG7dNneMGQ,L'Artusi,Italian,"'228 W 10th St New York, NY 10014'",40.73372,-74.00513,2239,4.5,2023-02-25 21:12:02.340032
OAqsZMbjv66nOMqlimnYuQ,Uva,Italian,"'1486 2nd Ave New York, NY 10075'",40.77219299003591,-73.95561517222123,2703,4.0,2023-02-25 21:12:02.340046
AUifp6IDKzmorCM6vY2fug,Pepe Giallo,Italian,"'195 10th Ave New York, NY 10011'",40.7468940064083,-74.0049896784992,760,4.0,2023-02-25 21:12:02.340059
DoSU8IPq-Py_YV3kYmXPfQ,Trattoria Trecolori,Italian,"'254 West 47th St New York, NY 10036'",40.759876,-73.986767,2607,4.0,2023-02-25 21:12:02.340071
22nKUyCIbpnzR6R3_g1ptQ,Carmine's Italian Restaurant - Times Square,Italian,"'200 W 44th St New York, NY 10036'",40.75749848725768,-73.98665333142026,4419,4.0,2023-02-25 21:12:02.340084
BPo5XByMdNiXK_i--gqiRA,Duomo51,Italian,"'25 W 51st St Fl 7 New York, NY 10019'",40.759979,-73.97824,14,4.5,2023-02-25 21:12:02.340097
JLpEKUYAtzBRQwsUL3RPIA,Il Corso,Italian,"'54 W 55th St New York, NY 10019'",40.762441,-73.977206,422,4.5,2023-02-25 21:12:02.340109
raqwXUBlnc0e8c7CYmxEJQ,Scarpetta,Italian,"'88 Madison Ave New York, NY 10016'",40.744509,-73.9856,2220,4.0,2023-02-25 21:12:02.340121
562aZEpTDdYKDe5hWuDyFA,La Gioconda,Italian,"'226 E 53rd St New York, NY 10022'",40.75716,-73.96833,194,4.0,2023-02-25 21:12:02.340132
vjubSxmdG_HoBBgd39geBw,Nino's 46,Italian,"'39 W 46th St New York, NY 10036'",40.7569046125342,-73.980516,1353,4.0,2023-02-25 21:12:02.340144
OWNmOq-TAsHjGcYdCVclSw,Osteria La Baia,Italian,"'129 W 52nd St New York, NY 10019'",40.76189587672743,-73.9806749,69,4.5,2023-02-25 21:12:02.340160
V3USzFEGhuoXez4G2Rk11A,Tavola,Italian,"'488 9th Ave New York, NY 10018'",40.755403,-73.994516,1234,4.0,2023-02-25 21:12:02.340173
5TX0X8w5ssIACU_pnBEq6g,Tony's Di Napoli,Italian,"'147 W 43rd St New York, NY 10036'",40.75641,-73.98547,2487,4.0,2023-02-25 21:12:02.340184
hkooeEkd3oPsLD6JJrYpjA,Café Luce,Italian,"'235 E 53rd St New York, NY 10022'",40.757323,-73.967928,98,4.5,2023-02-25 21:12:02.340196
TzVVPWK_4dhdSEpNqZwIhQ,Toscana 49,Italian,"'143 East 49 St New York, NY 10017'",40.7556957079225,-73.9717184007168,326,4.0,2023-02-25 21:12:02.340209
GjEE8vvjqb7eeHA3BGNxAw,Barolo East,Italian,"'214 E 49th St New York, NY 10017'",40.75481,-73.97059,247,4.5,2023-02-25 21:12:02.340221
3qIISjUYn1tbqHXi7nCLXg,Sofia Wine Bar,Italian,"'242 E 50th St New York, NY 10022'",40.75502,-73.96913,736,4.0,2023-02-25 21:12:02.340232
LXdblKc5g1Dp17xiV-Am1w,Trattoria Dell'Arte,Italian,"'900 7th Ave New York, NY 10019'",40.76545990643915,-73.98053136970677,1159,4.0,2023-02-25 21:12:02.340244
z7H9ApIGopnDnQaglnPTzg,Allora Ristorante,Italian,"'145 E 47th St New York, NY 10017'",40.75433,-73.97277,752,4.5,2023-02-25 21:12:02.340257
MOwB9YYd-Ko6nVgSB-ltQw,Briciola,Italian,"'370 W 51st St New York, NY 10019'",40.7637997047278,-73.9880919456482,982,4.0,2023-02-25 21:12:02.340269
5F9kZPnAleDYqCeCyvGJPA,Bad Roman,Italian,"'10 Columbus Cir New York, NY 10019'",40.768494,-73.983072,11,4.5,2023-02-25 21:12:02.340281
8oO6j7AlnAbMSJs9Oj9GIw,Osteria Delbianco,Italian,"'22 East 49th St New York, NY 10017'",40.7573689002,-73.9764462233,171,4.5,2023-02-25 21:12:02.340293
IAbOg5Kd5AynOcbI8vGTwQ,Aperitivo,Italian,"'14 E 60th St New York, NY 10022'",40.76431314475945,-73.9717568,52,4.5,2023-02-25 21:12:02.340306
dc3hkLkAqCSxDWQzrx-g9A,Quality Italian,Italian,"'57 W 57th St New York, NY 10019'",40.7644044527436,-73.9767805051616,1330,4.0,2023-02-25 21:12:02.340318
Q1_UvNyONsaVS_VC1mD9Dw,Osteria Cotta,Italian,"'513 Columbus Ave New York, NY 10024'",40.78554,-73.97263,1032,4.0,2023-02-25 21:12:02.340330
Ve6GVzzJpR5QIIPdcn6ViQ,Mercato,Italian,"'352 W 39th St New York, NY 10018'",40.75619,-73.9937,1026,4.0,2023-02-25 21:12:02.340342
qBGKigOGn_flCx1apxPzlA,Piccola Cucina Osteria,Italian,"'196 Spring St New York, NY 10012'",40.72506,-74.00322,758,4.5,2023-02-25 21:12:02.340353
yB4ziqFM_7V8JxJas7CHfA,Ulivo,Italian,"'4 W 28th St New York, NY 10001'",40.7447371960713,-73.9880339428782,365,4.0,2023-02-25 21:12:02.340365
WG639VkTjmK5dzydd1BBJA,Rubirosa,Italian,"'235 Mulberry St New York, NY 10012'",40.722766,-73.996233,2915,4.5,2023-02-25 21:12:02.340377
q3_FgDWWuXcVGiNuo_OPBQ,Fiaschetteria Pistoia,Italian,"'647 E 11th St New York, NY 10009'",40.72666,-73.9773,246,4.0,2023-02-25 21:12:02.340388
zRXMvxUX_rOliKZPpkWi_g,Valerie,Italian,"'45 W 45th St between 5th & 6th Ave New York, NY 10036'",40.756326,-73.981117,601,4.5,2023-02-25 21:12:02.340400
h37t9rA06Sr4EetJjKrfzw,Don Angie,Italian,"'103 Greenwich Ave New York, NY 10014'",40.73778,-74.00197,656,4.5,2023-02-25 21:12:02.340412
Zp-K3ztVTzR-LrWwl_CBgA,La Pecora Bianca,Italian,"'20 W 40th St New York, NY 10018'",40.7525275894982,-73.9829860255122,181,4.0,2023-02-25 21:12:02.340424
HiNUBUR1hFwScd_OvVLQAg,La Pecora Bianca,Italian,"'1133 Broadway New York, NY 10010'",40.74358,-73.9892,1002,4.0,2023-02-25 21:12:02.340436
SCQ9B9jxqNHvJKQ-RagxaA,SPES,Italian,"'413 E 12th St New York, NY 10009'",40.72979,-73.98274,31,4.5,2023-02-25 21:12:02.340447
ry0nAQiUn8bpNAruY_5wfw,Scalino,Italian,"'659 Manhattan Ave Brooklyn, NY 11222'",40.7244699,-73.95151,298,4.5,2023-02-25 21:12:02.340459
3FJjOq78eeqakDCsJHqJug,Sotto La Luna,Italian,"'34-39 31st St Astoria, NY 11106'",40.75821891908545,-73.92818819919232,66,4.5,2023-02-25 21:12:02.340471
Vs8kQ4R381y27AH018gLpg,Supper,Italian,"'156 E 2nd St New York, NY 10009'",40.72290786539601,-73.98520720537888,1460,4.0,2023-02-25 21:12:02.340488
mTWlEiCUEBlxBAkIikkB1A,Carmine's Italian Restaurant - Upper West Side,Italian,"'2450 Broadway New York, NY 10024'",40.791077,-73.973763,1692,4.0,2023-02-25 21:12:02.340503
T5dgMOv1iNY-z2ibeFQZgA,Il Monello,Italian,"'337 East 49th St New York, NY 10017'",40.753779846700596,-73.9674672,6,5.0,2023-02-25 21:12:02.340516
vVVmHacu2YAxKfpIjhfd1g,Norma,Italian,"'438 3rd Ave New York, NY 10016'",40.743553,-73.980026,595,4.5,2023-02-25 21:12:02.340528
HpxYBu1ARzOGvuUcLJe54g,Giardino 54,Italian,"'400 1/2 W 54th St New York, NY 10019'",40.7660476,-73.987591,195,4.5,2023-02-25 21:12:02.340540
26emJlm1YMFyOCezfgVk4g,Da Raffaele,Italian,"'883 First Ave New York, NY 10022'",40.7535386913133,-73.9666010811925,218,4.5,2023-02-25 21:12:02.340552
TqNd-LKHuoYo1_mYwqiBFQ,Nonna Dora’s,Italian,"'606 2nd Ave New York, NY 10016'",40.74440176159688,-73.97634764480043,63,4.5,2023-02-25 21:12:02.340565
LkV96_buOU_n0br4SBO57w,Ci Siamo,Italian,"'440 West 33rd St Ste 100 New York, NY 10001'",40.75240549384363,-73.9982864846782,246,4.5,2023-02-25 21:12:02.340580
H5bhfR5sL0I2w1csjI1uMA,Piatto,Italian,"'1-50 50th Ave Corner of Center Blvd & 50th Avenue Long Island City, NY 11101'",40.7435117,-73.9590968,234,4.0,2023-02-25 21:12:02.340593
OCTiJwvjoK81WoDwsTkFvA,Paesano of Mulberry Street,Italian,"'136 Mulberry St New York, NY 10013'",40.718554,-73.997447,1336,4.0,2023-02-25 21:12:02.340605
Z-QmxQZAJEy5GXqA82Bemw,Da Toscano,Italian,"'24 Minetta Ln New York, NY 10012'",40.730508,-74.001238,99,4.5,2023-02-25 21:12:03.392926
Rc1Ay4C2BgLBouuM92SAtQ,Ferdi,Italian,"'15 7th Ave S New York, NY 10014'",40.72995,-74.00449,24,5.0,2023-02-25 21:12:03.392955
a4WZUTKn90dOkeY38JHNjQ,Aurora,Italian,"'70 Grand St Brooklyn, NY 11249'",40.715621,-73.964757,792,4.0,2023-02-25 21:12:03.392967
nBy8KtcUHktPFKw-VClG1A,La Pecora Bianca,Italian,"'950 2nd Ave New York, NY 10022'",40.75495,-73.9682718,375,4.0,2023-02-25 21:12:03.392977
abZ-mEvF6Tj4hfyIg0lKwQ,Vite Vinosteria,Italian,"'31-05 34th St Astoria, NY 11106'",40.7629734277725,-73.92119564116,680,4.5,2023-02-25 21:12:03.392989
k5fd-RSdG4IuXnnGSQ5oOw,San Marzano Pasta Fresca,Italian,"'117 Second Ave New York, NY 10003'",40.727966,-73.988382,1493,4.0,2023-02-25 21:12:03.393006
JwCnSW-RQ7_DxvbzWNO1hA,Coletta,Italian,"'365 3rd Ave New York, NY 10016'",40.74094,-73.98139,166,4.5,2023-02-25 21:12:03.393128
dIyKvfhjtm3NuKrMVVt0TA,Lucciola Italian Restaurant,Italian,"'621 Amsterdam Ave New York, NY 10024'",40.790362,-73.972629,79,4.5,2023-02-25 21:12:03.393151
32VbG_XgkZIuye0PV-BxaA,Zero Otto Nove,Italian,"'15 W 21st St New York, NY 10010'",40.7407551035259,-73.9914887388588,528,4.0,2023-02-25 21:12:03.393164
zg9Jrtx9rqTXeaqufSOxHQ,Masseria dei Vini,Italian,"'887 9th Ave New York, NY 10019'",40.7684,-73.98558,518,4.0,2023-02-25 21:12:03.393175
fFIQ8Rx4x1Z34kFJcmlVzQ,Cacio E Pepe,Italian,"'1479 York Ave New York, NY 10075'",40.77090864674996,-73.95098168604862,60,4.5,2023-02-25 21:12:03.393186
V-FCEicobl5Su-R7EVJQNA,La Lanterna Di Vittorio,Italian,"'129 MacDougal St New York, NY 10012'",40.73069,-74.00015,1633,4.0,2023-02-25 21:12:03.393197
TWH4MjLtN1fKlF-7n6YXHg,Lil Frankie's,Italian,"'19 1st Ave New York, NY 10003'",40.723625,-73.988555,1427,4.0,2023-02-25 21:12:03.393207
riykDqJw_NPGssLgqCeD-Q,Aunt Jake's,Italian,"'1555 2nd Ave New York, NY 10028'",40.774587,-73.954513,179,4.5,2023-02-25 21:12:03.393217
pk89jzL1RsE9U0thf_z6tw,Locanda Verde,Italian,"'377 Greenwich St New York, NY 10013'",40.7198601300801,-74.010039072422,1815,4.0,2023-02-25 21:12:03.393228
wzHyRI6iW0rIY8rMb3KClA,Felice,Italian,"'240 Columbus Ave New York, NY 10023'",40.77697,-73.97933,106,4.0,2023-02-25 21:12:03.393238
oLg2HxLYChgvMRTK5ZSdKQ,Kurant,Italian,"'1091 2nd Ave New York, NY 10022'",40.75971,-73.96521,243,4.0,2023-02-25 21:12:03.393247
l7OsDvMOO3ji3fg0nT0QzA,Tony's Di Napoli,Italian,"'1081 3rd Ave New York, NY 10065'",40.764385574147596,-73.96426247506157,820,4.0,2023-02-25 21:12:03.393258
zwOAiVT4pAmpNGXzj-t5MA,Lilia,Italian,"'567 Union Ave Brooklyn, NY 11211'",40.71757,-73.95236,1115,4.0,2023-02-25 21:12:03.393268
CfYxlqO3W3PCE7hVhYJNyA,Il Gradino,Italian,"'808 Lexington Ave New York, NY 10065'",40.76436,-73.96681,19,4.0,2023-02-25 21:12:03.393277
rZ9OFoSqy8u4WECfh--ylg,Marta,Italian,"'29 E 29th St New York, NY 10016'",40.7445882,-73.9847936,1000,4.0,2023-02-25 21:12:03.393287
rFeNJtqgMWf2tWy-RB6jgg,Torrisi,Italian,"'275 Mulberry St New York, NY 10012'",40.7246154,-73.9952614,25,4.5,2023-02-25 21:12:03.393297
OwDRIugcA4LkUuTRqpJsog,Naked Dog,Italian,"'47 Java St Brooklyn, NY 11222'",40.7312720665479,-73.9593493647979,272,4.5,2023-02-25 21:12:03.393308
NAlOPUbFQVE0bUu8_wmBLQ,Rezdôra,Italian,"'27 E 20th St New York, NY 10003'",40.73901,-73.9891,573,4.0,2023-02-25 21:12:03.393318
RXCCofQw1EjTcSN0ZeXfRA,Risotteria Melotti NYC,Italian,"'309 E 5th St New York, NY 10003'",40.726673363853,-73.9880919456482,374,4.5,2023-02-25 21:12:03.393329
15k7iqFbhf4h8L01yggLqg,Song E Napule,Italian,"'146 W Houston St New York, NY 10012'",40.72813,-74.00188,671,4.5,2023-02-25 21:12:03.393339
EDucGBSfQ0YIbxdHS-KnCg,Sagaponack,Italian,"'4 W 22nd St New York, NY 10010'",40.741019,-73.990692,227,4.5,2023-02-25 21:12:03.393349
5EQOEAkH2Qh3Rv1TcnE7yA,Fiaschetteria Pistoia,Italian,"'114 Christopher St New York, NY 10014'",40.73316,-74.00537,115,4.0,2023-02-25 21:12:03.393359
yi6jIxzHo-nbAOG4KWuqcw,Maialino,Italian,"'30 E 30th St The Redbury New York New York, NY 10016'",40.7448869,-73.984231,1416,4.0,2023-02-25 21:12:03.393369
faukkggAc_tuJ4THYlf4fg,La Masseria,Italian,"'235 W 48th St New York, NY 10036'",40.760868632784,-73.986348802868,692,4.0,2023-02-25 21:12:03.393379
oUVX94JtKyLPXozC2hemCg,Manetta's Ristorante,Italian,"'1076 Jackson Ave Long Island City, NY 11101'",40.7427,-73.95184,446,4.0,2023-02-25 21:12:03.393389
eMSTTuOUlKEnSOr8lPp3Xg,Ammazzacaffè,Italian,"'702 Grand St Brooklyn, NY 11211'",40.7113172,-73.9446243,282,4.5,2023-02-25 21:12:03.393400
5zcZZJhriNQ2R92r9drxug,Il Postino,Italian,"'133 E 61st St New York, NY 10065'",40.76374,-73.96763,144,4.0,2023-02-25 21:12:03.393409
yZJbealagfujEkgesAl2hA,Lupa,Italian,"'170 Thompson St New York, NY 10012'",40.7276,-74.000045,1714,4.0,2023-02-25 21:12:03.393419
lP4ynyBoeFPywLg78XkMmw,Cibo e Vino,Italian,"'2418 Broadway New York, NY 10024'",40.79000179662657,-73.97485616653263,398,4.0,2023-02-25 21:12:03.393429
hDj_0pbi4mFR5p1H1w6igw,Misirizzi,Italian,"'36 E 4th St New York, NY 10003'",40.7272,-73.99228,189,4.5,2023-02-25 21:12:03.393439
tRIHhPKryUZ56SfIz6mLiA,Angelo's Coal Oven Pizzeria,Italian,"'117 W 57th St New York, NY 10019'",40.76492,-73.97794,1125,4.0,2023-02-25 21:12:03.393448
FNxOWxts63oDRKwy9Pbfzw,Tarallucci E Vino - Nomad,Italian,"'44 E 28th St New York, NY 10016'",40.74345604900017,-73.98470300895319,196,4.0,2023-02-25 21:12:03.393463
6eqrk1wCQMww_ejze5gvsg,Forsythia,Italian,"'9 Stanton St New York, NY 10002'",40.7225353,-73.992492,132,4.5,2023-02-25 21:12:03.393475
RbiXVG4tzpC3zuILadyPIQ,La Pecora Bianca,Italian,"'359 Columbus Ave New York, NY 10024'",40.78049101969648,-73.9763467,32,4.0,2023-02-25 21:12:03.393485
tJxAlyeT5PRbUIyJ2wsv-A,Bamonte's,Italian,"'32 Withers St Brooklyn, NY 11211'",40.71666591260819,-73.95125357171182,420,4.0,2023-02-25 21:12:03.393495
7_hGsGEkHrjgAiYVjrCFnw,Carbone,Italian,"'181 Thompson St New York, NY 10012'",40.728,-74.0001497,1555,4.0,2023-02-25 21:12:03.393505
QObHX0yR6zd0WfksRDbJTA,Becco,Italian,"'355 W 46th St New York, NY 10036'",40.76083,-73.98981,3079,3.5,2023-02-25 21:12:03.393515
jDIVPYpxQAk1HUAi0NIlQw,Pazza Notte,Italian,"'1375 Avenue Of The Americas New York, NY 10019'",40.76348,-73.978091,998,4.0,2023-02-25 21:12:03.393525
IErfGS0DASSJfYU73m0Sqg,Malatesta Trattoria,Italian,"'649 Washington St New York, NY 10014'",40.73285,-74.00847,1340,4.0,2023-02-25 21:12:03.393534
cl97uG2_QtiMBah-_s9w7g,Il Divo,Italian,"'1347 2nd Ave At E 71st St New York, NY 10021'",40.76816,-73.959204,100,4.5,2023-02-25 21:12:03.393544
EBK0OkVMBg_n_KxAU_4DZg,Double Zero,Italian,"'65 2nd Ave New York, NY 10003'",40.7261288,-73.9896645,609,4.5,2023-02-25 21:12:03.393558
CFR-HzVHKWRMpMAR3LAhzg,Montesacro Pinseria Brooklyn,Italian,"'432 Union Ave Brooklyn, NY 11211'",40.71338,-73.95136,226,4.5,2023-02-25 21:12:03.393568
DGhWO1sUWydVeR5j5ZZaMw,La Grande Boucherie,Italian,"'145 W 53rd St New York, NY 10019'",40.7626274,-73.98084109999999,2064,4.5,2023-02-25 21:12:03.393578
jnHbdsqlTKlPcmJ8BCP9-g,Via Carota,Italian,"'51 Grove St New York, NY 10014'",40.733148231901204,-74.00366777251583,838,4.0,2023-02-25 21:12:03.393589
t-Pm38_XhMnGfOYgkhaNRA,Le Fanfare,Italian,"'1103 Manhattan Ave Brooklyn, NY 11222'",40.736202,-73.955558,227,4.0,2023-02-25 21:12:04.432668
B2X53VuOuLyXe0OsGY-ZzA,La Pecora Bianca,Italian,"'817 Washington St New York, NY 10014'",40.73959,-74.00775,36,4.5,2023-02-25 21:12:04.432698
TZto7AjdA337XIw66AOpUw,Scalinatella Restaurant,Italian,"'201 E 61st St New York, NY 10065'",40.7627823203802,-73.9654829353094,321,4.0,2023-02-25 21:12:04.432714
YKLvheNuhQ3083AEgx0V2Q,Casa Soglia,Italian,"'365 Park Ave S New York, NY 10016'",40.74215,-73.98472,3,5.0,2023-02-25 21:12:04.432728
vbGqzhH_exG5HOG1I23kvg,Park Side Restaurant,Italian,"'107-01 Corona Ave Corona, NY 11368'",40.743843,-73.856118,880,4.0,2023-02-25 21:12:04.432740
Tp3MF3DNXuW41A10PQ2nFw,Amali,Italian,"'115 E 60th St New York, NY 10022'",40.7633557384716,-73.9686296877489,498,4.0,2023-02-25 21:12:04.432754
yc4vsT-Q4Ej1_9hr94DxkQ,Sotto 13,Italian,"'140 W 13th St New York, NY 10011'",40.7372,-73.99919,1033,4.0,2023-02-25 21:12:04.432767
Sp-vnk-waTvKblG_88M4TA,Trapizzino,Italian,"'144 Orchard St New York, NY 10002'",40.72043,-73.98894,289,4.5,2023-02-25 21:12:04.432779
4ixWiPyYysS2i8LAg4qzrQ,La Villetta,Italian,"'398 E 52nd St New York, NY 10022'",40.7549171,-73.9650879,106,4.0,2023-02-25 21:12:04.432791
H_KyiRhwho8rdlw_R93_0Q,Marea,Italian,"'240 Central Park S New York, NY 10019'",40.7674213694566,-73.9810554368179,2324,4.0,2023-02-25 21:12:04.432804
9T8Ootw4aqmaO42gI-wBSA,Botte UES,Italian,"'1606 1st Ave New York, NY 10028'",40.775079766410514,-73.95047928303218,95,4.0,2023-02-25 21:12:04.432817
yQ7K4uFnxXxpBVbnOSR8kA,Polpette 71,Italian,"'71 West 71st St New York, NY 10023'",40.77668,-73.97888,232,4.0,2023-02-25 21:12:04.432830
-Gc5sTFxoXM3Tiv_dkSJZg,Cecconi's Dumbo,Italian,"'55 Water St Brooklyn, NY 11201'",40.7033063330116,-73.9916549604523,1015,3.5,2023-02-25 21:12:04.432912
XQKUqU1vPvgnapxmmBI55Q,Maestro Pasta,Italian,"'102 MacDougal St New York, NY 10012'",40.72934,-74.00093,42,4.5,2023-02-25 21:12:04.432928
0axnkZlDiQcJVc06DDXxGQ,Ristorante Il Melograno,Italian,"'501 W 51st St New York, NY 10019'",40.7654289685161,-73.9914178848267,370,4.0,2023-02-25 21:12:04.432941
MphfKkYFEe0BDQ6hZ0A5fA,Gelso & Grand,Italian,"'186 Grand St New York, NY 10013'",40.71958,-73.99734,1366,4.5,2023-02-25 21:12:04.432953
kr5fRwdHtVwPPwSJxm9Fkg,Il Posto Accanto,Italian,"'190 E 2nd St New York, NY 10009'",40.72238,-73.98403,299,4.0,2023-02-25 21:12:04.432965
6Z5OWpaeGGazJHR4LfThsw,Palma,Italian,"'28 Cornelia St New York, NY 10014'",40.73115,-74.00233,827,4.0,2023-02-25 21:12:04.432976
lgFApPVpbXnsIFw1CRJORw,Cellini Restaurant,Italian,"'65 E 54th St New York, NY 10022'",40.760115,-73.972686,179,4.0,2023-02-25 21:12:04.432987
syNFp2qrQtXfH4bskQVgaA,Portale,Italian,"'126 W 18th St New York, NY 10011'",40.74023348892918,-73.9962661,153,4.5,2023-02-25 21:12:04.433000
Fit_iIDn__NPVZpVlKFBFQ,Osteria 106,Italian,"'53 W 106 St New York, NY 10025'",40.79894,-73.96174,198,4.5,2023-02-25 21:12:04.433012
XHhRAKq6DArQXYhkgvwaow,Spaghetti Incident,Italian,"'231 Eldridge St New York, NY 10002'",40.7223153441439,-73.9899454318763,646,4.0,2023-02-25 21:12:04.433024
7cjT33LfYSk7vrRdEaSr4w,Angeletto Restaurant,Italian,"'890 2nd Ave New York, NY 10017'",40.753188,-73.969365,291,4.5,2023-02-25 21:12:04.433037
RG5atiZtuNtpDu6GrNUQGw,NORMA Gastronomia Siciliana,Italian,"'801 9th Ave New York, NY 10019'",40.76563298237293,-73.98769143895947,87,4.0,2023-02-25 21:12:04.433049
WEhkGLKlj-5X1pq_07Syaw,Vesta,Italian,"'21-02 30th Ave Astoria, NY 11102'",40.76961,-73.92776,751,4.5,2023-02-25 21:12:04.433062
z8TIY5xLeQptbXxZp3LpsA,Felice 56,Italian,"'15 W 56th St New York, NY 10019'",40.762862,-73.975396,88,4.5,2023-02-25 21:12:04.433074
IOHaEgK1zDvUvB3SfKuGCw,Parker & Quinn,Italian,"'64 W 39th St New York, NY 10018'",40.752586217581296,-73.9850713153442,1593,4.0,2023-02-25 21:12:04.433086
d5ya04K-2A_hI3Xzqe1HeA,Caffe Buon Gusto,Italian,"'236 E 77th St New York, NY 10075'",40.77249,-73.95713,663,4.0,2023-02-25 21:12:04.433099
cyLw0vW5MrsF35-A6Dy03w,Saggio,Italian,"'829 W 181st St New York, NY 10033'",40.8514099281625,-73.9395604556239,676,4.0,2023-02-25 21:12:04.433111
JOvcJqD5eCFrGjFa6k7vpQ,Zia Maria - Chelsea,Italian,"'318 W 23rd St New York, NY 10011'",40.7454863,-73.9993392,306,4.0,2023-02-25 21:12:04.433123
15d_Y6TVOQFD2KRVkxuAjw,Baci & Abbracci,Italian,"'204 Grand St Brooklyn, NY 11211'",40.7139015197754,-73.96044921875,347,4.0,2023-02-25 21:12:04.433136
hSpZSqElyjHTfE4lQJ97Cg,Mareluna,Italian,"'137 Sullivan St New York, NY 10012'",40.726787,-74.001836,66,4.5,2023-02-25 21:12:04.433148
HV8xairb2qct7wSHqNwqXw,Levante,Italian,"'26-21 Jackson Ave Long Island City, NY 11101'",40.74764,-73.94173,326,4.0,2023-02-25 21:12:04.433160
zYaYXpmlo6QdnaPwuxWHhQ,L'Osteria,Italian,"'1219 Lexington Ave New York, NY 10028'",40.77704,-73.95721,21,4.5,2023-02-25 21:12:04.433171
RPP_wHhM8yZYIP5W-YHk6Q,Fumo,Italian,"'2791 Broadway New York, NY 10025'",40.80285617298625,-73.968119,209,4.0,2023-02-25 21:12:04.433183
IxwuIDcpRa7EpQs7V481Ww,Il Gattopardo,Italian,"'13-15 W 54th St New York, NY 10019'",40.7614994602915,-73.976308999227,225,4.0,2023-02-25 21:12:04.433196
lwfCl81r5a0mjxDNxNGC9w,Il Buco,Italian,"'47 Bond St New York, NY 10012'",40.72583,-73.99299,779,4.0,2023-02-25 21:12:04.433208
KCBfW6sWl9Gx-LvMff08jg,Osteria Morini,Italian,"'218 Lafayette St New York, NY 10012'",40.7219179851303,-73.9976472073402,1272,4.0,2023-02-25 21:12:04.433220
J0SZjwe0Rc-H6mzl0oByxQ,Mimi's Italian Restaurant & Piano Bar,Italian,"'984 2nd Ave New York, NY 10022'",40.75611,-73.96728,365,3.5,2023-02-25 21:12:04.433232
hzPBADaUBQEL30MGrvKsww,Il Tinello Ristorante Italiano,Italian,"'16 W 56th St New York, NY 10019'",40.76256,-73.97566,319,4.5,2023-02-25 21:12:04.433244
Rc1lxc5lSKJYd162JHNMfQ,Bea,Italian,"'403 W 43rd St New York, NY 10036'",40.7591968,-73.9923361,2810,4.0,2023-02-25 21:12:04.433256
5k_jwjhdFMPUNWhouGNzuA,Misi,Italian,"'329 Kent Ave Brooklyn, NY 11249'",40.71341,-73.96662,568,4.0,2023-02-25 21:12:04.433268
rpVX-o82EEOX8ZDnM28a_Q,Bistango,Italian,"'145 E 50th St The Kimberly Hotel New York, NY 10022'",40.75628,-73.97144,344,4.0,2023-02-25 21:12:04.433279
E48WbksxAk19a8vjJRVIVQ,Ramerino Italian Prime,Italian,"'16 E 39th St New York, NY 10016'",40.75107,-73.98135,40,4.5,2023-02-25 21:12:04.433291
aJJlY5xvqS180wtRIHEWqA,Cotenna,Italian,"'21 Bedford St New York, NY 10014'",40.72903,-74.00357,458,4.0,2023-02-25 21:12:04.433303
NlmP5x_Ykznd55Dc85ChUg,Nittis,Italian,"'523 9th Ave New York, NY 10018'",40.7567,-73.99411,307,4.5,2023-02-25 21:12:04.433314
FRp1NwIyp6tkDU986cJkXQ,Piccola Cucina Estiatorio,Italian,"'75 Thompson St New York, NY 10012'",40.7246,-74.0029799,243,4.5,2023-02-25 21:12:04.433326
5pRxCYQppSq0czjFDN9X3Q,Campagnola Restaurant,Italian,"'1382 1st Ave New York, NY 10021'",40.768817,-73.954833,315,4.0,2023-02-25 21:12:04.433337
h4VCnZ2aZ33mdenS_ZI7jQ,Mama Mia 44 SW,Italian,"'621 9th Ave New York, NY 10036'",40.759761,-73.992065,821,4.0,2023-02-25 21:12:04.433349
ZVa3-O6LMxZXSpKG0J1h-w,Piccolo Angolo Restaurant,Italian,"'621 Hudson St New York, NY 10014'",40.7378601855952,-74.0058052539825,606,4.0,2023-02-25 21:12:04.433361
7Tu5l9UfWVi_v3m4TwJAxQ,Caffe dei Fiori,Italian,"'973 Lexington Ave New York, NY 10021'",40.76935,-73.9627,87,4.5,2023-02-25 21:12:05.482846
3n96VKiKG5Tte8z-U-TaLg,SoleLuna Restaurant,Italian,"'40-01 Queens Blvd Sunnyside, NY 11104'",40.7439934462309,-73.9240421354771,480,4.5,2023-02-25 21:12:05.482877
kMQ0IXs5mdjDeUvpWSHgRg,Il Mulino New York - Tribeca,Italian,"'361 Greenwich St New York, NY 10013'",40.71904,-74.01016,50,4.0,2023-02-25 21:12:05.482893
f8TZ_ctcSwxwW8S69YKnwg,Il Bambino,Italian,"'34-08 31st Ave Astoria, NY 11106'",40.76281,-73.92089,1305,4.5,2023-02-25 21:12:05.482906
-hUvO0C0A-pGZdiSKvjoFw,Babbo,Italian,"'110 Waverly Pl New York, NY 10011'",40.732283,-73.999284,2588,4.0,2023-02-25 21:12:05.482919
xKIv_b2L2pUHmsoJ-xOepg,Gran Morsi,Italian,"'22 Warren St New York, NY 10007'",40.714312,-74.007791,462,4.5,2023-02-25 21:12:05.482931
78TCGIG1eHMYdyvMpFdDbQ,Follia,Italian,"'179 3rd Ave New York, NY 10003'",40.7349243164062,-73.9855880737305,276,4.0,2023-02-25 21:12:05.482944
Gc7OVEIs4HodL4hw9U3C3w,Copinette,Italian,"'891 1st Ave New York, NY 10022'",40.75407,-73.96623,210,4.0,2023-02-25 21:12:05.482956
o2SAcKbfOMkA71xUfyee6Q,Rossini's,Italian,"'108 E 38th St New York, NY 10016'",40.74921,-73.97883,260,4.0,2023-02-25 21:12:05.482967
1ZKbUeFAs0ltSnAYq4ELKw,Trattoria L'incontro,Italian,"'21-76 31st St Astoria, NY 11105'",40.77648209257472,-73.91059675544598,1092,4.5,2023-02-25 21:12:05.482980
B0qxEXABa8-t9sY4NQRRsQ,Fumo - Harlem,Italian,"'1600 Amsterdam Ave New York, NY 10031'",40.821427,-73.950638,554,4.0,2023-02-25 21:12:05.482992
ntQ7O1YPMIOrQkynhXRBVg,Manducatis,Italian,"'13-27 Jackson Ave Long Island City, NY 11101'",40.7445948529884,-73.9490695847509,162,4.0,2023-02-25 21:12:05.483005
d15lwNLOlLSeaAYqPadntw,Sam's Place,Italian,"'132 E 39th St New York, NY 10016'",40.749270880468,-73.977082744053,292,4.0,2023-02-25 21:12:05.483018
b6jOwyX4iaagw8YjXqq1sA,Antonio's Trattoria,Italian,"'2370 Belmont Ave Bronx, NY 10458'",40.854131,-73.886601,1009,4.5,2023-02-25 21:12:05.483031
fH8DkdRerw5LJ7fZZHRfeA,Leuca,Italian,"'111 N 12th St The William Vale Hotel Brooklyn, NY 11249'",40.722121,-73.956678,420,4.0,2023-02-25 21:12:05.483043
C8Ctyq7pXOPESK8cz_X2CA,Pomodoro Rosso,Italian,"'229 Columbus Ave New York, NY 10023'",40.776398,-73.979288,379,4.0,2023-02-25 21:12:05.483055
qYDoWRdntIApGW6fEUHWIQ,biricchino,Italian,"'260 W 29th St New York, NY 10001'",40.7488743961,-73.9954839431414,164,4.0,2023-02-25 21:12:05.483067
fyC2cBsQ0FsMJmv0jSworg,Donna Margherita,Italian,"'1304 2nd Ave Ste A New York, NY 10065'",40.76652,-73.9598,167,4.5,2023-02-25 21:12:05.483079
RfxOtJ4SQmEeVX_XjFLWUQ,Otis,Italian,"'18 Harrison Pl Brooklyn, NY 11206'",40.706011,-73.932598,486,5.0,2023-02-25 21:12:05.483146
twHJyFgUSd7wzioKQjE7Jw,Galli,Italian,"'45 Mercer St New York, NY 10013'",40.72161,-74.00127,1039,4.0,2023-02-25 21:12:05.483160
xsQTIeq-WLkp4ParkTQpMQ,PizzArte,Italian,"'69 W 55th St New York, NY 10019'",40.7629335072372,-73.9776668697596,1249,4.0,2023-02-25 21:12:05.483172
MeUq9lombxM9alxs64tejQ,Pepolino Restaurant,Italian,"'281 W Broadway New York, NY 10013'",40.720756,-74.004885,618,4.0,2023-02-25 21:12:05.483184
06tnwnEQM2j9A6dC3HC_TQ,Capizzi,Italian,"'547 9th Ave New York, NY 10018'",40.75744,-73.99357,887,4.0,2023-02-25 21:12:05.483196
QQpQujXQGbZBK6BeAokzDA,Pomp & Circumstance Dining,Italian,"'577 Lorimer St Williamsburg, NY 11211'",40.714166,-73.949612,142,5.0,2023-02-25 21:12:05.483208
MH08_pIRKsUSwfkVYxUE7w,Vinatería,Italian,"'2211 Frederick Douglass Blvd Harlem, NY 10026'",40.80668,-73.95395,599,4.0,2023-02-25 21:12:05.483219
JYNBy2r3LVhJbLHE1bASfg,The Smith,Italian,"'1900 Broadway New York, NY 10023'",40.7716201269986,-73.9818377981476,2039,4.0,2023-02-25 21:12:05.483233
o5mMVFk4Hcpk2FuKfgTgdg,Malaparte,Italian,"'753 Washington St New York, NY 10014'",40.73687,-74.00812,393,4.0,2023-02-25 21:12:05.483245
aLM9irVFlNoVlS9dGuW_Lg,Amata,Italian,"'209 E 56th St New York, NY 10022'",40.759426,-73.967063,94,4.0,2023-02-25 21:12:05.483256
vhqFa_0SG9M7Ra1OTmfB9A,LaRina Pastificio & Vino,Italian,"'387 Myrtle Ave Brooklyn, NY 11205'",40.6933631896973,-73.9704132080078,217,4.0,2023-02-25 21:12:05.483268
hyBM_Xk9Hzp38acTHAHlBQ,dell'anima,Italian,"'600 11th Ave New York, NY 10036'",40.7661790467228,-73.99445587334046,683,4.0,2023-02-25 21:12:05.483282
K9Ur20N51Li3sAvaV9-6Ng,Casa Limone,Italian,"'20 East 49th St New York, NY 10017'",40.7573268,-73.97666174194207,87,4.5,2023-02-25 21:12:05.483295
zo4JHfD2nWPUiqgsgDOaHQ,Rao's,Italian,"'455 E 114th St New York, NY 10029'",40.79392,-73.93427,207,4.5,2023-02-25 21:12:05.483306
9K0run3oObR0YT4jaOEvWg,L'Angeletto,Italian,"'327 2nd Ave New York, NY 10003'",40.73541417,-73.982956,83,4.5,2023-02-25 21:12:05.483318
qCf1QN11Qdncpqb7PhuyVw,The Rag Trader & Bo Peep Cocktail and Highball Store,Italian,"'70 W 36th St New York, NY 10018'",40.75059,-73.98628,740,4.5,2023-02-25 21:12:05.483330
ifIfq2EwEohCgoKnG68_LA,Villa Berulia,Italian,"'107 E 34th St New York, NY 10016'",40.7467827,-73.9806507,192,4.5,2023-02-25 21:12:05.483343
gAMETn5mltwjn2QLt6bWjw,Isabella,Italian,"'110 St Marks Pl New York, NY 10009'",40.726966,-73.984334,14,5.0,2023-02-25 21:12:05.483354
zuB6VRXwj3QzTh9x-nQIRQ,Il Fiorista,Italian,"'17 W 26th St New York, NY 10010'",40.744174968132405,-73.9895829,105,4.0,2023-02-25 21:12:05.483366
J0OeDwmh5JBhid0A5GvltA,Il Corallo Trattoria,Italian,"'176 Prince St New York, NY 10012'",40.7262073,-74.0018919,1113,4.0,2023-02-25 21:12:05.483378
rJJiGJx3kfMAxtD7P7okHQ,Celeste Restaurant,Italian,"'502 Amsterdam Ave New York, NY 10024'",40.78666,-73.97599,965,3.5,2023-02-25 21:12:05.483390
H5L18XZRHh_13HaeeHH_sQ,Casa Di Napoli,Italian,"'703 32nd St Union City, NJ 07087'",40.773718,-74.0306062996387,149,4.5,2023-02-25 21:12:05.483402
E2zKMwHhz4--dyplQ7gf8A,Pappardella,Italian,"'316 Columbus Ave Ste 1 New York, NY 10023'",40.77940129780038,-73.97750031523518,718,3.5,2023-02-25 21:12:05.483415
goqTQ4tOD-asC_ZJBW9l7w,Patsy's Italian Restaurant,Italian,"'236 W 56th St New York, NY 10019'",40.76553,-73.98274,1084,4.0,2023-02-25 21:12:05.483428
tLZfepIfSf0a80zHQTbTGQ,Trattoria Zero Otto Nove,Italian,"'2357 Arthur Ave Bronx, NY 10458'",40.854779,-73.888474,862,4.0,2023-02-25 21:12:05.483440
XfOa_KyrV7JSFJMOKckGMg,Monte's Trattoria,Italian,"'97 Macdougal St New York, NY 10012'",40.72959,-74.0011,423,4.0,2023-02-25 21:12:05.483451
a0IET3_yCFcO36OqGSsisg,Eataly NYC Flatiron,Italian,"'200 5th Ave New York, NY 10010'",40.74200824886595,-73.98993910744127,6037,4.0,2023-02-25 21:12:05.483464
ktMtLr8mp4K7IGxUgCTs6Q,Bocca di Bacco,Italian,"'635 9th Ave New York, NY 10036'",40.76021745303923,-73.99156281784906,6,4.5,2023-02-25 21:12:05.483478
Xk3BVvlX-KXh6kJhbClMKw,Fine & Rare,Italian,"'9 E 37th St New York, NY 10016'",40.7501754760742,-73.9821929931641,490,4.5,2023-02-25 21:12:05.483491
B55Ocx5RBWxo6AGSucYSIA,Ilili,Italian,"'236 5th Ave New York, NY 10001'",40.74435,-73.98778,2669,4.0,2023-02-25 21:12:05.483503
KXhxtA_JDkCrujeyXvqsgQ,Canto,Italian,"'117 Perry St New York, NY 10014'",40.73512,-74.00671,122,4.0,2023-02-25 21:12:05.483514
gyWc5qJRvu26LVQIShdR4Q,Babbalucci,Italian,"'331 Lenox Ave New York, NY 10027'",40.80894,-73.94496,466,4.0,2023-02-25 21:12:05.483524
iXV4FMZPru7BB_nwN_8mVw,Maiella,Italian,"'4610 Center Blvd Long Island City, NY 11109'",40.7471944,-73.9566640197964,1094,4.0,2023-02-25 21:12:06.532674
kIm0oeOaVfC9-2flLPVklA,Patrizia's Pizza and Pasta,Italian,"'462-466 2nd Ave New York, NY 10016'",40.7398415,-73.9792862,759,4.0,2023-02-25 21:12:06.532705
77llOAEwInvK-oC2AHZ4nQ,Coppola's East,Italian,"'378 3rd Ave New York, NY 10016'",40.74165,-73.98154,416,4.0,2023-02-25 21:12:06.532720
Yubu48l7he-qrNDSeAngbQ,Via Vai,Italian,"'31-09 23rd Ave Astoria, NY 11105'",40.7741502,-73.9123089,242,4.0,2023-02-25 21:12:06.532732
E1RvMNZ4re4TnKarjx14Zw,Cacio E Pepe,Italian,"'182 2nd Ave New York, NY 10003'",40.73065490170433,-73.98593714531415,715,3.5,2023-02-25 21:12:06.532746
nSk_zCJESMKGLHyJTPPlZA,Bottino,Italian,"'246 10th Ave New York, NY 10001'",40.74848569625031,-74.00331301292165,387,4.0,2023-02-25 21:12:06.532760
E5rmVdrCn-0uwD2M9nkXdw,Da Capo,Italian,"'1392 Madison Ave New York, NY 10029'",40.7877696714384,-73.9538384601474,223,4.5,2023-02-25 21:12:06.532773
LdWyeeV8DuYINKVTghFwrg,Canaletto Restaurant,Italian,"'208 E 60th St New York, NY 10022'",40.76174,-73.96569,81,4.0,2023-02-25 21:12:06.532785
uPe0efNw-uwPybeqccZ1zQ,Osteria Al Doge,Italian,"'142 W 44th St New York, NY 10036'",40.75662,-73.9849,502,4.0,2023-02-25 21:12:06.532797
vRrVSB-LegwUwIxpkeRVtQ,Le Bernardin,Italian,"'155 W 51st St The Equitable Bldg New York, NY 10019'",40.761557,-73.981763,2830,4.5,2023-02-25 21:12:06.532809
YE4pvo8ectzEaRYGqUgFcA,Felice 64,Italian,"'1166 1st Ave New York, NY 10065'",40.76256,-73.9596,391,4.0,2023-02-25 21:12:06.532821
4WDHrSodF1Xidv9ezS6Sgg,Tuscany Steakhouse,Italian,"'117 W 58th St New York, NY 10019'",40.76546,-73.97724,204,4.5,2023-02-25 21:12:06.532833
HodL0fXoF08C3Ir-kLeTtw,Forma Pasta Factory,Italian,"'14 Bedford Ave Brooklyn, NY 11222'",40.72371,-73.95157,514,4.5,2023-02-25 21:12:06.532844
zjglOaCY8xQu3s2eKnLFzw,Mozzarella & Vino,Italian,"'33 W 54th St New York, NY 10019'",40.76204,-73.97718,265,4.0,2023-02-25 21:12:06.532856
25npnVAlhRjguunYS8zy8w,Piccola Strada,Italian,"'77 E 4th St New York, NY 10003'",40.72662,-73.99019,227,4.5,2023-02-25 21:12:06.532867
6n7D4amt9vEruR73tt3S9w,Cafe Fiorello,Italian,"'1900 Broadway New York, NY 10023'",40.77175902009792,-73.98185582596686,909,3.5,2023-02-25 21:12:06.532880
Z67mgMkN3RfdPEX5mXsyYA,Piacere,Italian,"'351 Broome St New York, NY 10013'",40.7196979,-73.9951175,711,4.0,2023-02-25 21:12:06.532892
scjoZtbTQHi35xhAlUm2iQ,L'ADRESSE,Italian,"'1065 Ave Of The Americas New York, NY 10018'",40.753918142987104,-73.98531150211585,786,4.0,2023-02-25 21:12:06.532904
NGyFpNCrzqEG3B0Z0drKfw,Amarone Scarlatto,Italian,"'686 Ninth Ave West 47 Street New York, NY 10036'",40.76171494384402,-73.9899636,57,4.0,2023-02-25 21:12:06.532917
C3E8CVVwzKtOv_sRR1WuRQ,Salumeria Rosi,Italian,"'283 Amsterdam Ave New York, NY 10023'",40.77932,-73.9809,562,4.0,2023-02-25 21:12:06.532929
ETgJqJHV7BW6pIr9Ox74sA,Amélie,Italian,"'22 W 8th St New York, NY 10011'",40.7327,-73.99766,2894,4.5,2023-02-25 21:12:06.532941
Ry9w-jFALWYhazi6jjyIKw,Rucola,Italian,"'190 Dean St Brooklyn, NY 11217'",40.68562,-73.98587,553,4.0,2023-02-25 21:12:06.532953
zDujEq9qZk13nBcG2PH4tA,Il Falco,Italian,"'21-50 44th Dr Long Island City, NY 11101'",40.7476595714373,-73.9455319123659,341,4.5,2023-02-25 21:12:06.532966
UJe9_p6NEl0kA6xHVo5PKw,Amelie,Italian,"'566 Amsterdam Ave New York, NY 10024'",40.78875,-73.97464,278,4.5,2023-02-25 21:12:06.532978
f8ipr8Wdy1_wHhw7JgNqPQ,Da Claudio,Italian,"'21 Ann St New York, NY 10038'",40.71087,-74.00753,606,4.5,2023-02-25 21:12:06.533057
WIhm0W9197f_rRtDziq5qQ,Lombardi's Pizza,Italian,"'32 Spring St New York, NY 10012'",40.7215934960083,-73.9955956044561,6531,4.0,2023-02-25 21:12:06.533072
urpBS_SwoSwonOtkwJ3i3A,AperiBar,Italian,"'120 W 41st St New York, NY 10036'",40.75454487364027,-73.98568263216227,13,4.5,2023-02-25 21:12:06.533085
M4pCWzdBCkp2g_d834a7Hw,Sauce,Italian,"'78 Rivington St New York, NY 10002'",40.7204716,-73.9893263,920,4.0,2023-02-25 21:12:06.533098
4RhrQpbhjDmOyXT3qz7v2g,Osteria Carlina,Italian,"'455 Hudson St New York, NY 10014'",40.731409,-74.006984,81,4.0,2023-02-25 21:12:06.533109
s5nPO911cYB2chdwqSqT9g,La Nonna Ristorante & Bar,Italian,"'184 Kent Ave Brooklyn, NY 11249'",40.71848683628801,-73.96404187764361,409,4.0,2023-02-25 21:12:06.533122
iQo5aJwTL_ZrXCdPFKq-RA,Isle of Capri,Italian,"'1028 3rd Ave New York, NY 10065'",40.76283,-73.96602,280,4.0,2023-02-25 21:12:06.533134
5Akss-swwfyoSVeIsDBbvw,Basta Pasta,Italian,"'37 W 17th St New York, NY 10011'",40.73881,-73.99407,1510,4.0,2023-02-25 21:12:06.533145
X9f5HH4x3Mi7lo4ph9efvQ,Terre,Italian,"'341 5th Ave Brooklyn, NY 11215'",40.671949831792,-73.9837719490146,158,4.5,2023-02-25 21:12:06.533158
LfRiA6RORToZUSJUHkZBVA,Frankies 457 Spuntino,Italian,"'457 Court St Brooklyn, NY 11231'",40.677328,-73.997972,885,4.0,2023-02-25 21:12:06.533169
wV2YuZKjk5VhZz3I27xtsA,Monterey,Italian,"'37 E 50th St New York, NY 10022'",40.75767029068569,-73.97455063884706,21,4.0,2023-02-25 21:12:06.533182
JyXn_GCGM2DsNYIzgzQrDw,Da Gennaro,Italian,"'129 Mulberry St New York, NY 10013'",40.71832,-73.99794,1244,4.0,2023-02-25 21:12:06.533194
hot1lIebdQNau05onRum7w,Otto Strada,Italian,"'743 Park Ave Hoboken, NJ 07030'",40.7466038915745,-74.0311605558891,407,4.0,2023-02-25 21:12:06.533206
c3D2ckzacnPtdGIM8tb-_w,B Side Pizza & Wine Bar,Italian,"'370 W 51st St New York, NY 10019'",40.76388,-73.98821,1275,4.5,2023-02-25 21:12:06.533218
WmK7GXwOnLSTRN1ocyUThg,Puglia Ristorante,Italian,"'189 Hester St New York, NY 10013'",40.7181606872639,-73.9976975651144,619,4.0,2023-02-25 21:12:06.533230
pP4oS09iOB6qMaX3GkKSuQ,Avena UES,Italian,"'22 E 66th St New York, NY 10065'",40.767957,-73.968759,38,4.0,2023-02-25 21:12:06.533242
xrTwutv3Y5I4lySFOaKa2A,Longo Bros,Italian,"'474 9th Ave New York, NY 10018'",40.754825,-73.994862,69,4.0,2023-02-25 21:12:06.533253
vFsjObMTImsnM_DzVo4N3g,Bocca Cucina and Bar,Italian,"'39 E 19th St New York, NY 10003'",40.73826,-73.98886,442,4.0,2023-02-25 21:12:06.533264
qKfD10PsDKP_9B7O1_7oJQ,All'Antico Vinaio,Italian,"'729 8th Ave New York, NY 10036'",40.7597,-73.98823,214,4.5,2023-02-25 21:12:06.533276
JBthOvTegHbrLDiVaCAy5Q,Bigoi Venezia,Italian,"'1415 2nd Ave New York, NY 10021'",40.770036,-73.9577755,334,4.5,2023-02-25 21:12:06.533288
e4L0hsq6Q96mV2nKQ9CgNQ,Tramonti Fifth Ave,Italian,"'2 W 28th St New York, NY 10001'",40.74475,-73.98772,55,4.5,2023-02-25 21:12:06.533299
eWMuXtaBzf0H5u0Vf_zpjw,Ciccio,Italian,"'190 6th Ave New York, NY 10013'",40.7263263267119,-74.0034471165676,307,4.5,2023-02-25 21:12:06.533311
n_NIY1KTi-R5DPkduEUKIw,Ovest Pizzoteca by Luzzo's,Italian,"'513 W 27th St New York, NY 10001'",40.7507476806641,-74.0030212402344,593,4.0,2023-02-25 21:12:06.533324
Dng_LID2JNnc6M6A1FB19Q,Come Prima Ristorante,Italian,"'903 Madison Ave New York, NY 10021'",40.7721165011105,-73.965037390213,103,4.5,2023-02-25 21:12:06.533337
uPWyvfh5qSrVbujhjsDiiw,Oregano,Italian,"'102 Berry St Brooklyn, NY 11249'",40.7190165,-73.9586248,493,4.0,2023-02-25 21:12:06.533350
eQdjZQaLnjItmn9suEEeIA,Patricia's,Italian,"'1082 Morris Park Ave Bronx, NY 10461'",40.84912,-73.8533099,605,4.0,2023-02-25 21:12:06.533361
_N92SH1Zi-Hbxn_bNHFz0Q,Noodle Pudding,Italian,"'38 Henry St Brooklyn, NY 11201'",40.69979,-73.99203,609,4.0,2023-02-25 21:12:07.581718
idxD3X7WfLFPZMoFnCRIQQ,Il Cantinori,Italian,"'32 E 10th St New York, NY 10003'",40.7322779619352,-73.9929321762328,283,4.0,2023-02-25 21:12:07.581749
A-ert0jDRBfku9ogyW_mEg,Spice Symphony,Italian,"'150 E 50th St New York, NY 10022'",40.7558937072754,-73.9715347290039,630,4.5,2023-02-25 21:12:07.581766
WNOUPEZ6J8SZVSaK6Q3e-A,Porto By Antonio,Italian,"'8921 Old River Rd North Bergen, NJ 07047'",40.8048834508642,-73.9934416639218,922,4.5,2023-02-25 21:12:07.581780
BA0_zeBrnugK2l0HHp38mw,Via Della Pace,Italian,"'87 E 4th St New York, NY 10003'",40.72646,-73.9898,566,4.0,2023-02-25 21:12:07.581793
rJ9V5bMbP_e9ABaTkPjAbA,Coco Pazzeria,Italian,"'1078 First Ave. New York, NY 10022'",40.7557292,-73.9645808,68,4.0,2023-02-25 21:12:07.581806
JSexQM-wn8HvWmfxu_m5ZA,Gnocco,Italian,"'337 E 10th St New York, NY 10009'",40.72713,-73.9802799,567,4.0,2023-02-25 21:12:07.581818
LRgB2kEKtBxqIxNksTO_PQ,Patrizia's - Williamsburg,Italian,"'35 Broadway Brooklyn, NY 11249'",40.7109154314181,-73.9673637711639,793,4.0,2023-02-25 21:12:07.581831
pgtgGAAuHMT0KTm3CDPQsA,Sorellina,Italian,"'1036 Washington St Hoboken, NJ 07030'",40.74977,-74.02746,358,3.5,2023-02-25 21:12:07.581844
9iC39Z1YjZKbrrCANgzBXg,Sergimmo Salumeria,Italian,"'456 9th Ave New York, NY 10018'",40.754296,-73.995498,719,4.0,2023-02-25 21:12:07.581856
q8myw-sQtrmn0w-tKSC5cA,Cucina Alba,Italian,"'511 W 18th St New York, NY 10011'",40.7451419,-74.0069681,41,4.0,2023-02-25 21:12:07.581868
LTi4_wcCVmqQeJ_jgTEbOQ,Emporio,Italian,"'231 Mott St New York, NY 10012'",40.722647,-73.995246,863,4.0,2023-02-25 21:12:07.581880
C3OlQ_y5LcgboyaKlpETYA,Trattoria Casa Di Isacco,Italian,"'536 9th Ave New York, NY 10018'",40.75686,-73.99356,369,4.0,2023-02-25 21:12:07.581891
QUTSHrHw3qRZjf749VM1Yg,Serafina Italian Restaurant Osteria,Italian,"'38 E 58th St New York, NY 10022'",40.76273,-73.97155,147,3.5,2023-02-25 21:12:07.581903
kQuTJxm0KAX1AsS46vhC_g,Barbuto,Italian,"'113 Horatio St New York, NY 10014'",40.73885,-74.00932,81,4.0,2023-02-25 21:12:07.581915
U91Lj5NUG42zweY_LKjKbQ,Fasano Restaurant New York,Italian,"'280 Park Ave Entrance On 49th St New York, NY 10017'",40.75675458251292,-73.9755649,18,4.0,2023-02-25 21:12:07.581927
FKzpfWUpyupl4q74Jt8fTA,Don Antonio,Italian,"'309 W 50th St New York, NY 10019'",40.762711,-73.986708,1631,4.0,2023-02-25 21:12:07.581940
oRdM7n-AfBPBGAlH4Q0Sag,My Pie Pizzeria Romana,Italian,"'690 Lexington Ave New York, NY 10022'",40.7608512,-73.9694809,894,4.5,2023-02-25 21:12:07.581952
pTWFuMYed409y99N0zY05Q,Barbaresco Restaurant,Italian,"'843 Lexington Ave New York, NY 10065'",40.76539,-73.96556,103,4.0,2023-02-25 21:12:07.581964
Lesv5BG0_0-8bB49cAjMkg,Roberto's,Italian,"'603 Crescent Ave Bronx, NY 10458'",40.85372,-73.88834,293,4.0,2023-02-25 21:12:07.581976
bW3mY-voyav37nU0uaLmNQ,Dante,Italian,"'79-81 Macdougal St New York, NY 10012'",40.72879,-74.00165,588,4.0,2023-02-25 21:12:07.581987
dh5r9-SbN8xJ76XvnayWLQ,Giano Restaurant,Italian,"'126 E 7th St New York, NY 10009'",40.7262256596862,-73.9840574049125,695,4.5,2023-02-25 21:12:07.582000
UQZmhaPAMdZabid6ccvhTg,IL Punto Ristorante,Italian,"'507 9th Ave New York, NY 10018'",40.75614426678582,-73.9946186,444,4.5,2023-02-25 21:12:07.582013
VqxwHMcof6G5RIw45dMpGQ,Serafina Italian Restaurant In the Sky,Italian,"'400 West 42nd St New York, NY 10036'",40.75845,-73.99308,22,3.5,2023-02-25 21:12:07.582025
1CSsMjfgqWShayQBwNuoNg,Erbaluce,Italian,"'46 W 22nd St New York, NY 10010'",40.741718,-73.992427,10,4.5,2023-02-25 21:12:07.582038
VqnPcfqYltgxAkIuTaGkYg,Tre,Italian,"'173 Ludlow St New York, NY 10002'",40.72184,-73.987714,519,4.0,2023-02-25 21:12:07.582049
bEXTA_Gwo2oVg4gnFd9fNA,Ai Fiori,Italian,"'400 5th Ave Ste 2 New York, NY 10018'",40.7500752,-73.9837835,1451,4.0,2023-02-25 21:12:07.582061
clOFor0bFSjse7EUfdRacg,Faro,Italian,"'436 Jefferson St Brooklyn, NY 11237'",40.707407,-73.922839,325,4.0,2023-02-25 21:12:07.582073
Be1Y-vAEMgo7lqL5alXgDA,Taverna Di Bacco,Italian,"'175 Ludlow St New York, NY 10002'",40.72191,-73.98768,327,4.5,2023-02-25 21:12:07.582084
FebvtuoXRQ8h8CZMe8NeYw,B'artusi,Italian,"'520 Hudson St New York, NY 10014'",40.73401,-74.00607,29,4.0,2023-02-25 21:12:07.582096
blaTQKod-nz94F3Fm_ZoYQ,Osteria Laura,Italian,"'1890 Adam Clayton Powell Jr Blvd New York, NY 10026'",40.80251,-73.95355,51,4.5,2023-02-25 21:12:07.582172
F89nDDlYZ7wbRe8EpLCqBw,Avra 48th Street,Italian,"'141 E 48th St New York, NY 10017'",40.755048569901554,-73.97243859999999,999,4.0,2023-02-25 21:12:07.582188
muX5xoh3aOleCrSja_T_FA,IL Tavolo di’ Palmisano,Italian,"'700 Clinton St Hoboken, NJ 07030'",40.74571,-74.03346,205,4.0,2023-02-25 21:12:07.582201
83zDAk03lFXkgImgkLhT9w,Chi Restaurant & Bar,Italian,"'492 9th Ave New York, NY 10018'",40.75547,-73.99439,41,4.0,2023-02-25 21:12:07.582214
1nQZbtmjODUgPm-QQdKrhA,Milk and Roses,Italian,"'35 Box St Brooklyn, NY 11222'",40.737426,-73.955056,437,3.5,2023-02-25 21:12:07.582226
aSprnLY-6GkMk1cuv0TMeA,Al Di La Trattoria,Italian,"'248 5th Ave Brooklyn, NY 11215'",40.675332643247,-73.981340475038,955,4.0,2023-02-25 21:12:07.582239
0Tvwk0hvgaY0QVIsZGTZKQ,Antica Ristorante,Italian,"'8 Stone St New York, NY 10004'",40.7039355145338,-74.0121731758117,545,4.5,2023-02-25 21:12:07.582252
jzvHGkDUIQkcz8CZM_Je_g,Lupo Rosso,Italian,"'43-69 11th St Long Island City, NY 11101'",40.7503484,-73.9488625,30,4.5,2023-02-25 21:12:07.582265
4bHtiA1md69LDag55kv8lg,Isabelle's Osteria,Italian,"'245 Park Ave S New York, NY 10003'",40.737985,-73.987703,155,4.0,2023-02-25 21:12:07.582277
FhXjAc6nKLf414KxYujUHw,Roberta's,Italian,"'261 Moore St Brooklyn, NY 11206'",40.70493,-73.93399,3238,4.0,2023-02-25 21:12:07.582288
-Td-YEPTOUq2H3LRWgRxUw,Non Solo Piada,Italian,"'302 W 37th St New York, NY 10018'",40.75414,-73.99245,407,4.5,2023-02-25 21:12:07.582300
3P8hb1ZOCA8IjEGfqpSpxg,Sfoglia Restaurant,Italian,"'1402 Lexington Ave New York, NY 10128'",40.783535,-73.952719,313,4.0,2023-02-25 21:12:07.582311
xbrQ2dHuQoFJmNxAuOky4A,Vic's,Italian,"'31 Great Jones St New York, NY 10012'",40.72693,-73.99319,566,4.0,2023-02-25 21:12:07.582323
8nXo6lNJlXQQIdy8Kf7J9Q,Tessa,Italian,"'349 Amsterdam Ave New York, NY 10024'",40.7814059,-73.97918,448,4.0,2023-02-25 21:12:07.582334
VmgvCsAP6vZ3DL1mw8ugWQ,Osteria Del Porto,Italian,"'212 Front St New York, NY 10038'",40.70737443140159,-74.00270427364536,53,4.5,2023-02-25 21:12:07.582347
dNFsMw-z3Vsa5TbJd9Q4Ew,Faces & Names,Italian,"'159 W 54th St New York, NY 10019'",40.76351,-73.98098,411,4.0,2023-02-25 21:12:07.582359
NGzwDLroGL4JvG81BWliNw,Armondo's Italian Restaurant,Italian,"'7316 Northern Blvd Jackson Heights, NY 11372'",40.7545652,-73.8934414,77,4.5,2023-02-25 21:12:07.582371
t3WXZ8U6espLzY5YQ1Ocsg,Cello Wine & Cocktail Bistro,Italian,"'226 E 53rd St New York, NY 10022'",40.7570686,-73.9684187,209,4.0,2023-02-25 21:12:07.582384
q0hMNf-YhfDMFQyUQdsIJg,R40,Italian,"'47-16 Vernon Blvd Long Island City, NY 11101'",40.74501,-73.95363,188,4.5,2023-02-25 21:12:07.582396
l7Z0p-PkSwIDPLPY1TRl8A,Emilio's Ballato,Italian,"'55 E Houston St New York, NY 10012'",40.7244923,-73.9944022,479,4.0,2023-02-25 21:12:07.582407
T-RXDLq_VEv7s1_SooYIYQ,Osteria 57,Italian,"'57 W 10th St New York, NY 10011'",40.73467,-73.99786,298,4.5,2023-02-25 21:12:08.637814
S8OKQ5S40oZ1Rr5RbC0jdg,Motorino,Italian,"'349 E 12th St New York, NY 10003'",40.73039,-73.98381,1115,4.0,2023-02-25 21:12:08.637844
f_1BjTChf6bobreSRpqhsw,Arco Cafe,Italian,"'886 Amsterdam Ave New York, NY 10025'",40.7988462,-73.967065,340,4.5,2023-02-25 21:12:08.637859
ePJlqiIhoVKIJW69IE53rg,Botte Brooklyn,Italian,"'327 Gold St Brooklyn, NY 11201'",40.69446,-73.98316,45,4.5,2023-02-25 21:12:08.637872
xQ445GaWVN5Aa3sFX9OoIg,Buvette,Italian,"'42 Grove St New York, NY 10014'",40.732704,-74.00434640955953,2084,4.0,2023-02-25 21:12:08.637885
MPblH3J1kpbNGL4C4U7RAQ,IL Carino Restaurant,Italian,"'1710 2nd Ave New York, NY 10128'",40.77945,-73.95019,119,4.0,2023-02-25 21:12:08.637897
HSKcCmRFqzqG542Hy_eftw,Siena Cafe,Italian,"'1580 3rd Ave New York, NY 10128'",40.78073,-73.953,286,3.5,2023-02-25 21:12:08.637909
pP92FmGKpH5nQfaPXMfQAg,Mollusca,Italian,"'1 Little W 12th St New York, NY 10014'",40.7396062,-74.005997,80,4.0,2023-02-25 21:12:08.637921
pGr5QuQU7Ur5GHLvXbT8bw,Paulie Gee's,Italian,"'60 Greenpoint Ave Brooklyn, NY 11222'",40.729546,-73.958568,1334,4.5,2023-02-25 21:12:08.637933
r2nIYBSyXny1-7XvsL2PVg,Lena's Italian Kitchen,Italian,"'551 2nd Ave New York, NY 10016'",40.742664,-73.977783,325,4.5,2023-02-25 21:12:08.637946
9mawr6QwVHm5q8JRXPFjPA,San Marino Ristorante,Italian,"'66 Charlton St New York, NY 10014'",40.72697,-74.00611,201,4.5,2023-02-25 21:12:08.637958
zzJA5P32V9MIHIMBIyasJw,Dante West Village,Italian,"'551 Hudson St New York, NY 10014'",40.735202,-74.006251,182,4.0,2023-02-25 21:12:08.637969
1AL6P_EC6Z3UPxqhfGFb3Q,Pasta by Hudson,Italian,"'180 7th Ave New York, NY 10011'",40.7427486,-73.9969892,102,4.5,2023-02-25 21:12:08.637982
JliAIBARXi9uISzNG26DVw,Elio's,Italian,"'1621 2nd Ave New York, NY 10028'",40.7767632368091,-73.9526632086427,296,3.5,2023-02-25 21:12:08.637995
kvWSD8qHKugLcmDsNBMdfQ,Paola's Osteria,Italian,"'1246 Madison Ave New York, NY 10128'",40.78318,-73.9573,70,3.5,2023-02-25 21:12:08.638007
g-q-kRxdn2zh2oWOY-jKTQ,Anfora,Italian,"'34 8th Ave New York, NY 10014'",40.73789,-74.00408,198,4.0,2023-02-25 21:12:08.638019
4eGCuMwKRCCrYHOobEsFpA,Lusardi's,Italian,"'1494 2nd Ave New York, NY 10075'",40.7724199,-73.9555,259,4.5,2023-02-25 21:12:08.638030
F8RLZFoTxOO_GBPJNjz3kA,Mark's Off Madison,Italian,"'41 Madison Ave Ground Level New York, NY 10010'",40.742325,-73.986271,129,4.0,2023-02-25 21:12:08.638042
I0N_QtJy7sLiuW_vmvRIhg,Maruzzella,Italian,"'1483 1st Ave New York, NY 10075'",40.77135,-73.95379,138,4.0,2023-02-25 21:12:08.638054
owZRGT6cxeHrpPxFuslMVw,Cozy Royale,Italian,"'434 Humboldt St Brooklyn, NY 11211'",40.71693,-73.94295,53,4.5,2023-02-25 21:12:08.638066
00V7oJIc_wZKM2cjGrL1HQ,Bar Cicchetti by Fabio Viviani,Italian,"'113 W 24th St New York, NY 10011'",40.743973307837564,-73.99300677914937,37,4.0,2023-02-25 21:12:08.638079
gqTikTCIS01E2m20PzHoDQ,Tarallucci e Vino - East Village,Italian,"'163 1st Ave New York, NY 10003'",40.72901,-73.98469,302,4.0,2023-02-25 21:12:08.638092
HbCyzokiA19bEWUp6mga_g,bibi,Italian,"'211 E 4th St New York, NY 10009'",40.723937,-73.983519,215,4.5,2023-02-25 21:12:08.638104
rOYVPZLrPjp5zUcAz1buKA,Pozzo Vivo,Italian,"'690 9th Ave New York, NY 10036'",40.76182,-73.98994,4,4.5,2023-02-25 21:12:08.638116
F-eRrDik2KK0sNjpGiNbAg,Trattoria iL Gusto Wine Bar,Italian,"'625 Columbus Ave New York, NY 10024'",40.78923,-73.9698499,74,3.5,2023-02-25 21:12:08.638127
hq09sqXaYiEogbTrrJ9X5g,Da Capo Columbus,Italian,"'322 Columbus Ave New York, NY 10023'",40.77972,-73.97752,157,4.0,2023-02-25 21:12:08.638139
ZmxEeE9m0CdpvM3wVRvonQ,Sicily Osteria,Italian,"'330 W 46th St New York, NY 10036'",40.76019,-73.98918,67,4.0,2023-02-25 21:12:08.638151
J38XGzriEkMsDfCMt6et_g,VEZZO NYCThinCrust Pizza,Italian,"'178 Lexington Ave New York, NY 10016'",40.744435447210506,-73.9814189,1385,4.0,2023-02-25 21:12:08.638163
XyICIfSun7HWtBEUFux2PQ,Bocca Di Bacco,Italian,"'169 9th Ave New York, NY 10011'",40.7445631,-74.0030779,237,3.5,2023-02-25 21:12:08.638176
OmB4X44Ru8gjD6qgSNlXdg,Primola Restaurant,Italian,"'1226 2nd Ave New York, NY 10065'",40.7638675,-73.9616489,157,3.5,2023-02-25 21:12:08.638188
pC_QwLpeL2Enk4hBgDcRqQ,Da Marino,Italian,"'220 W 49th St New York, NY 10019'",40.76102,-73.98526,655,4.0,2023-02-25 21:12:08.638200
REC_m1Y4caJIXz8DDdgh-A,Mels,Italian,"'85 10th Ave New York, NY 10011'",40.74303,-74.00779,54,4.0,2023-02-25 21:12:08.638211
nHMDOIX32dGbfpuNUwsLNQ,AlMar,Italian,"'111 Front St Brooklyn, NY 11201'",40.702662,-73.989177,491,4.0,2023-02-25 21:12:08.638222
vGS5X12NYXCl8NpynlxRuw,Oscar Wilde,Italian,"'45 W 27th St New York, NY 10001'",40.74514,-73.9900399,1123,4.0,2023-02-25 21:12:08.638234
TsYrzVVtkKO4Asrk_L9stw,Parm - New York,Italian,"'235 Columbus Ave New York, NY 10023'",40.7764333,-73.9794019,712,3.5,2023-02-25 21:12:08.638245
DJSLGbSqCJ1W8ma3LFlMuw,Patzeria Perfect Pizza,Italian,"'231 W 46th St New York, NY 10036'",40.759494511551836,-73.98673451962638,1786,4.0,2023-02-25 21:12:08.638258
Uo7z3QSxLCxj8U44wtj2bA,Felice On Hudson,Italian,"'615 Hudson St New York, NY 10014'",40.73784,-74.00582,16,4.5,2023-02-25 21:12:08.638270
2Nwmd7-1d1rI6lb9QSSYYA,A Pasta Bar,Italian,"'330 W Broadway New York, NY 10013'",40.72229,-74.00403,468,4.0,2023-02-25 21:12:08.638347
-vBfKWJ1v9YdJQT5XUbcBQ,Le Botaniste,Italian,"'833 Lexington Ave New York, NY 10065'",40.7649986274526,-73.9659830279587,455,4.5,2023-02-25 21:12:08.638363
6AWiJUeP4FINQF48az-bkQ,Pasta Eater,Italian,"'9 E 17th St New York, NY 10003'",40.73765,-73.99134,214,4.0,2023-02-25 21:12:08.638376
gu1gF8uZ_KvTzrL67hwH3g,Enzo Bruni La Pizza Gourmet,Italian,"'1827 2nd Ave New York, NY 10128'",40.783433,-73.947932,98,4.5,2023-02-25 21:12:08.638387
rupPZLhd0oRSAmVDaeYaGA,Bocca di Bacco Hell's Kitchen,Italian,"'836 9th Ave New York, NY 10019'",40.7662168,-73.9867943,702,4.0,2023-02-25 21:12:08.638400
7jG0JgpWs4APQRflhIyhhQ,Lena’s Italian Kitchen,Italian,"'1167 2nd Ave New York, NY 10065'",40.76228,-73.963519,88,4.5,2023-02-25 21:12:08.638412
Njr_f1J5Pve35OyPdBljVA,Convivium Osteria,Italian,"'68 5th Ave Brooklyn, NY 11217'",40.68105,-73.97748,540,4.0,2023-02-25 21:12:08.638425
9W_dg9fvb-z8DBye2jfGiQ,Dazie's,Italian,"'39-41 Queens Blvd Sunnyside, NY 11104'",40.744194,-73.924557,100,4.0,2023-02-25 21:12:08.638436
nM2AdRp2iSJHi4MgvIrEBg,Oak Tuscan Truffle Lounge,Italian,"'28 Greenwich Ave New York, NY 10011'",40.735042,-74.00002,156,4.5,2023-02-25 21:12:08.638448
hVqZ4vihjL1gFTD-KdX-Tw,Gennaro,Italian,"'665 Amsterdam Ave New York, NY 10025'",40.79178,-73.9718,422,3.5,2023-02-25 21:12:08.638460
v1M1HIQBVwYatEF_iOmedw,ViceVersa,Italian,"'325 W 51st St New York, NY 10019'",40.7635858415079,-73.9866799425418,292,4.0,2023-02-25 21:12:08.638472
OkfqS1xsv26xa7siRZZqbw,Gabriels Bar and Restaurant,Italian,"'40 Central Park S New York, NY 10019'",40.76523,-73.97557,33,4.0,2023-02-25 21:12:08.638484
5MpWHGQ6Qc-M4q1KL_nioA,Bar B,Italian,"'84 7th Ave New York, NY 10011'",40.7395804,-73.999118,195,4.5,2023-02-25 21:12:08.638496
CAGAWbPE8uPr2VVvEnv0ZA,Ribalta Pizza,Italian,"'48 E 12th St New York, NY 10003'",40.7334346,-73.9916923,742,4.0,2023-02-25 21:12:09.677081
hpRrYBbKUqv8ewFKDjbjoA,Gersi,Italian,"'316 Court St Brooklyn, NY 11231'",40.683438,-73.995711,341,4.5,2023-02-25 21:12:09.677110
Orbsfc3nI21mQ8cwSPahhg,The Four Horsemen,Italian,"'295 Grand St Brooklyn, NY 11211'",40.71305,-73.95732,285,4.5,2023-02-25 21:12:09.677125
e7jRn5TNlF84k7PuvJ1MOA,Manducatis Rustica,Italian,"'46-33 Vernon Blvd Long Island City, NY 11101'",40.7458575124991,-73.9528775638914,225,4.0,2023-02-25 21:12:09.677139
YoLxK5EG8UgnueKAe7hj0g,I Sodi,Italian,"'105 Christopher St New York, NY 10014'",40.7334747314453,-74.005012512207,472,3.5,2023-02-25 21:12:09.677154
2MuvmwOuwvGOWkBimhniLA,La Bellezza,Italian,"'145 E 49th St New York, NY 10017'",40.7557792663574,-73.9720153808594,294,4.0,2023-02-25 21:12:09.677167
MT_a_Tg3ENdxqZFQyJocgQ,Joanne Trattoria,Italian,"'70 W 68th St New York, NY 10023'",40.774527071184984,-73.98030317398896,611,3.5,2023-02-25 21:12:09.677181
ipoJv9uuT3WgjeVozKUx8A,Fresh Basil's Trattoria,Italian,"'930 3rd Ave New York, NY 10022'",40.759552,-73.968344,101,3.0,2023-02-25 21:12:09.677194
foRWizWrQ32g6Vv4g9UTnA,Nocciola Ristorante,Italian,"'237 E 116th St New York, NY 10029'",40.797525,-73.938393,263,4.0,2023-02-25 21:12:09.677206
TUJutjq0LU6zexzM8Wia4w,Arthur & Sons NY Italian,Italian,"'38 8th Ave New York, NY 10014'",40.73801,-74.00409,170,4.0,2023-02-25 21:12:09.677218
MoyxzhaYIsJx-p9IuGGK4w,Stella 34 Trattoria,Italian,"'151 West 34th St Fl 6 Macy's Herald Square New York, NY 10001'",40.75049486336486,-73.98798861987918,731,3.5,2023-02-25 21:12:09.677231
mPHPVJ2-8mOR-lFHafrc6w,Evelina,Italian,"'211 Dekalb Ave Brooklyn, NY 11205'",40.689722,-73.971003,310,4.5,2023-02-25 21:12:09.677245
cGqMEMQFtkB3hIGfLy2R3A,Bar Pitti,Italian,"'268 Ave Of The Americas New York, NY 10014'",40.729047,-74.002153,1209,3.5,2023-02-25 21:12:09.677257
e6ic-qLMcaQLrAnHn2jgTw,La Pecora Bianca,Italian,"'54 Prince St New York, NY 10012'",40.72347420863732,-73.9963118,179,4.0,2023-02-25 21:12:09.677269
Kh0-HmlgmVUkRxR55_Vn1g,Patsy's Pizzeria,Italian,"'2287 1st Ave New York, NY 10035'",40.797157,-73.93488,928,4.0,2023-02-25 21:12:09.677281
6aVgixwks8EgirE1JtyDAQ,John's of 12th Street,Italian,"'302 E 12th St New York, NY 10003'",40.730685,-73.985502,843,4.0,2023-02-25 21:12:09.677292
PnGSE8JGbMZKtdHi9go7Kg,The Milling Room,Italian,"'446 Columbus Ave New York, NY 10024'",40.7835485472543,-73.9744088718635,546,4.0,2023-02-25 21:12:09.677305
X8Hl9OezX-Yr9Jir3fsF7g,POSTO NYCThinCrust Pizza,Italian,"'310 2nd Ave New York, NY 10003'",40.73483,-73.98282,660,4.0,2023-02-25 21:12:09.677317
zj8Lq1T8KIC5zwFief15jg,Prince Street Pizza,Italian,"'27 Prince St New York, NY 10012'",40.72308755605564,-73.99453001177575,4780,4.5,2023-02-25 21:12:09.677330
-0vID-pN57SqpaYlmNYzXg,Pecoraro Latteria,Italian,"'636 Metropolitian Ave Brooklyn, NY 11211'",40.714055,-73.947825,55,4.5,2023-02-25 21:12:09.677342
5CuYWr0-cE01HxlBu5Ka6g,Carne Mare,Italian,"'89 South St Pier 17 New York, NY 10038'",40.70568649199326,-74.00218961453646,171,4.5,2023-02-25 21:12:09.677355
5ZEFbq_AQV5VQFG2JKYzlA,Giorgio's of Gramercy,Italian,"'27 E 21st St New York, NY 10010'",40.7394209879325,-73.9885425567627,814,4.0,2023-02-25 21:12:09.677368
Li4N7-v4a7cXV5TT1OFOWw,Luchini Italian,Italian,"'39 E 58th St New York, NY 10022'",40.7629313,-73.9714374,19,4.0,2023-02-25 21:12:09.677381
DCiEo7qucPaEj7Gtdj1U9A,Sant Ambroeus,Italian,"'1000 Madison Ave New York, NY 10021'",40.77541,-73.96297,494,4.0,2023-02-25 21:12:09.677392
7S8g0G_Ndc3DS-kqsozq8Q,83 1/2,Italian,"'345 E 83rd St New York, NY 10028'",40.775354,-73.951216,225,4.0,2023-02-25 21:12:09.677404
rem9J_3x0urIH1vrFkEljA,Mamo USA,Italian,"'1170 Broadway New York, NY 10001'",40.74511,-73.98862,5,4.5,2023-02-25 21:12:09.677415
-UvkD-dQiefHRl1SNOJywA,La Pecora Bianca,Italian,"'1562 2nd Ave New York, NY 10028'",40.77477802702051,-73.95379483409555,20,4.0,2023-02-25 21:12:09.677427
ysqgdbSrezXgVwER2kQWKA,Juliana's,Italian,"'19 Old Fulton St Brooklyn, NY 11201'",40.70274718768062,-73.99343490196397,2604,4.5,2023-02-25 21:12:09.677440
wLzJbddDixAEZrF7VT6_hw,Bono Trattoria,Italian,"'3658 Broadway New York, NY 10031'",40.8301996389829,-73.9473449424522,354,4.5,2023-02-25 21:12:09.677453
V7z1ZkTOtV-dNOKhZsAlMw,Patsy's Pizzeria,Italian,"'801 2nd Ave New York, NY 10017'",40.750427,-73.972129,317,3.5,2023-02-25 21:12:09.677465
QgClXDNikG0wRpIZ-Rcm7A,La Devozione,Italian,"'75 9th Ave New York, NY 10011'",40.742463072401314,-74.0059581,51,3.5,2023-02-25 21:12:09.677477
oLA02lMIfgvbYquvXzkARw,Lillie's Victorian Establishment,Italian,"'249 W 49th St New York, NY 10019'",40.7614625,-73.9860519,1577,4.0,2023-02-25 21:12:09.677489
rPKXTHDgtGI4XEo2HuVpow,Mr. Jones Supper Club,Italian,"'22 Jones St New York, NY 10014'",40.7317819,-74.0025704,64,5.0,2023-02-25 21:12:09.677502
iV5yy8EbjsPoYWtjRhB61Q,Nica Trattoria,Italian,"'354 E 84th St New York, NY 10028'",40.7756431,-73.950783,156,4.0,2023-02-25 21:12:09.677513
vjj3MMPkULJUCv8xf3XRiA,San Matteo Takeaway,Italian,"'1731 2nd Ave New York, NY 10128'",40.7801684,-73.9502899,163,4.0,2023-02-25 21:12:09.677525
u5zbsITgkFbAlRq0j-XE-g,Serafina Italian Restaurant Broadway,Italian,"'210 W 55th St New York, NY 10019'",40.764415484123354,-73.9819469,696,3.0,2023-02-25 21:12:09.677537
cp5k0PKl236X0xaNDYR5Zw,Feroce Ristorante,Italian,"'105 W 28th St New York, NY 10001'",40.746403834819894,-73.9909495791506,84,4.0,2023-02-25 21:12:09.677550
oV_B5pRkcICNab7_eVoIcA,Go Nonna,Italian,"'10-50 44th Dr Long Island City, NY 11101'",40.74831,-73.9499,147,4.5,2023-02-25 21:12:09.677562
y6V0XdpXbSoM4rHxLy5fwg,Vallata,Italian,"'47 E 19th St New York, NY 10003'",40.738070676010935,-73.98858792703702,39,4.0,2023-02-25 21:12:09.677575
Ty1MvJz88DeNmX0eDHeMyQ,Pietro's,Italian,"'232 E 43rd St New York, NY 10017'",40.7506055,-73.9721964,139,4.0,2023-02-25 21:12:09.677587
53ZNJNrT91VgvrI0LFjLNQ,Locanda Vini e Olii,Italian,"'129 Gates Ave Brooklyn, NY 11238'",40.685007,-73.962943,335,4.0,2023-02-25 21:12:09.677598
UVQ1GxmhlDVDM2acLexJ7A,Roberto's II Ristorante,Italian,"'936 River Rd Edgewater, NJ 07020'",40.826943,-73.973692,115,4.0,2023-02-25 21:12:09.677609
iEUXrUUqGfUhpgYYSr5Zig,Da Nico Ristorante,Italian,"'164 Mulberry St New York, NY 10013'",40.71963,-73.99691,985,4.0,2023-02-25 21:12:09.677688
ieoPAi6nbdEkrwv4vGVSwg,Via Trenta Osteria,Italian,"'3619 30th Ave Astoria, NY 11103'",40.76491,-73.91654,520,3.5,2023-02-25 21:12:09.677703
UjzSeETESWzramhdOdWKKQ,Tartina,Italian,"'1034 Amsterdam Ave New York, NY 10025'",40.8035073,-73.9636591,321,4.0,2023-02-25 21:12:09.677715
XzkmePjJC0ryuqZp5qd12A,Fresco By Scotto,Italian,"'34 E 52nd St New York, NY 10022'",40.758896,-73.97444438329205,488,3.5,2023-02-25 21:12:09.677727
uzEhT55QIdk9YbfFwmlRzQ,Altesi Ristorante,Italian,"'26 E 64th St New York, NY 10065'",40.76667,-73.96959,84,4.0,2023-02-25 21:12:09.677739
FXYsBqMu2q1dhJYQg_FfAA,Rosemary’s,Italian,"'350 1st Ave New York, NY 10010'",40.735097,-73.979074,205,4.0,2023-02-25 21:12:09.677750
LSOpxBBa217HxnJ7VnY2WQ,Il Violino,Italian,"'180 Columbus Ave New York, NY 10023'",40.775012,-73.980736,324,3.5,2023-02-25 21:12:09.677764
fuS39acPaRi38DhSSwEI4Q,Felice 15 Gold,Italian,"'15 Gold St New York, NY 10038'",40.70789,-74.00712,440,4.0,2023-02-25 21:12:09.677775
b2z0IifTb3zeuEbZ5fx7YQ,Spaghetti Tavern,Italian,"'425 Amsterdam Ave New York, NY 10024'",40.783999644919156,-73.97748999443762,71,4.5,2023-02-25 21:12:10.730121
7ZecxKox2SiVtsNDWphJZQ,Limani,Italian,"'45 Rockerfeller Plz New York, NY 10111'",40.7593809598193,-73.9778140767212,510,4.0,2023-02-25 21:12:10.730152
vAMKgIUWCrYxjfhceCCNAQ,Sandro's,Italian,"'322 East 86th St New York, NY 10028'",40.77740421779163,-73.9537163,101,4.0,2023-02-25 21:12:10.730168
MHbxF-ZS918-ZoXKQPBEyg,Sotto Le Stelle,Italian,"'4407 Queens Blvd Sunnyside, NY 11104'",40.743656,-73.9201782,350,4.5,2023-02-25 21:12:10.730181
EZNw56hywTm1PJNYOMbfHQ,Morso,Italian,"'420 E 59th St New York, NY 10022'",40.758765,-73.960929,153,3.5,2023-02-25 21:12:10.730194
GAvyDral555vltKrupUcjw,Osteria Laguna,Italian,"'209 E 42nd St New York, NY 10017'",40.750656315963745,-73.97356620000002,397,3.5,2023-02-25 21:12:10.730207
kLJfizeHMQqesp1K9mfUtg,Via Quadronno,Italian,"'25 E 73rd St New York, NY 10021'",40.77277,-73.96514,607,4.0,2023-02-25 21:12:10.730220
0IwdwNnbro5RLLIlaxyfpQ,The Wilson NYC,Italian,"'132 W 27th St New York, NY 10001'",40.74587,-73.99265,332,4.0,2023-02-25 21:12:10.730232
Ei5qjq0qmfNLkdVoO-S5Tw,Raffetto's,Italian,"'144 W Houston St New York, NY 10012'",40.72816,-74.00172,249,4.5,2023-02-25 21:12:10.730244
GnaeBuilZb_fU01v3wNhZw,Grimaldi's,Italian,"'411 Washington St Hoboken, NJ 07030'",40.74131,-74.02953,454,4.0,2023-02-25 21:12:10.730255
qLYloGaI-4OmLbNnr_wrGA,Castell Rooftop Lounge,Italian,"'260 W 40th St Fl 21 New York, NY 10018'",40.75558,-73.99012,225,4.0,2023-02-25 21:12:10.730266
C-8mGN7lt5rIraO5n-15ug,The Smith,Italian,"'956 2nd Ave New York, NY 10022'",40.755165,-73.967868,3072,4.0,2023-02-25 21:12:10.730278
qhyll2gPT-gGDRP6JGn1aQ,Bice Cucina - Midtown,Italian,"'62 W 55th St New York, NY 10019'",40.7624702435463,-73.9768997892404,152,4.0,2023-02-25 21:12:10.730291
b42PcC1nCP602fiXF0a9Xg,Barbalu Restaurant,Italian,"'225-227 Front St New York, NY 10038'",40.7074747,-74.0020404,338,4.0,2023-02-25 21:12:10.730303
JU5d81TYm7IJHWqOqJWMqw,Have & Meyer,Italian,"'103 Havemeyer St Brooklyn, NY 11211'",40.7132687751084,-73.9564743950496,191,4.0,2023-02-25 21:12:10.730315
A5MHd0GjEb4P86UsNzUnig,SESAMO - Italian Asian Restaurant Hell's Kitchen NYC,Italian,"'764 10th Ave New York, NY 10019'",40.765726,-73.990678,288,4.0,2023-02-25 21:12:10.730327
6NqCJcJvYEdvjI2e0mH0Yw,Corto,Italian,"'507 Palisade Ave Jersey City, NJ 07307'",40.74597,-74.04337,253,4.0,2023-02-25 21:12:10.730340
vofTtCfw19YvmKS_7CgGIg,Figlia,Italian,"'23-02 31st St Queens, NY 11105'",40.774449102130426,-73.91320832247209,21,4.5,2023-02-25 21:12:10.730353
OWAfPuMnSqn7Ru1_RNH8fw,Aria Hell's Kitchen,Italian,"'369 51st St New York, NY 10019'",40.7641145,-73.98814222665982,481,3.5,2023-02-25 21:12:10.730365
YqHszHxkqaC6azgrOsRO1Q,The Pasta Boss,Italian,"'149 Mulberry St New York, NY 10013'",40.71904153293925,-73.9975553,11,4.5,2023-02-25 21:12:10.730378
h8XLhVVPoYPYodZqQOjRMw,Robert,Italian,"'2 Columbus Cir New York, NY 10019'",40.767394,-73.982036,1012,4.0,2023-02-25 21:12:10.730390
MdFV5IBcX-Ni6I4Zy1EqIw,Marlow Bistro,Italian,"'1018 Amsterdam Ave New York, NY 10025'",40.8028109023738,-73.9641991912535,346,4.0,2023-02-25 21:12:10.730402
uy9JPyjgthV64RCJN-EyAw,Harry Cipriani,Italian,"'781 5th Ave New York, NY 10022'",40.76439,-73.97271,206,3.0,2023-02-25 21:12:10.730414
kIK1DBH6ODkSouhvz-4VWA,Il Tinello,Italian,"'244 East 46th St New York, NY 10017'",40.75265874754987,-73.97093351560888,15,5.0,2023-02-25 21:12:10.730426
X97pE0LRWOng1q66kjAz1g,The Independent,Italian,"'147 W 40th St New York, NY 10018'",40.754782,-73.987377,195,4.5,2023-02-25 21:12:10.730438
WqjqHMozyW42XLTtLnKGag,La Pulperia Hell's Kitchen,Italian,"'623 9th Ave New York, NY 10036'",40.7599217,-73.991841,870,4.0,2023-02-25 21:12:10.730450
19zArMBG2qW2k16Y0i2aBA,Obicà Mozzarella Bar Pizza e Cucina,Italian,"'928 Broadway New York, NY 10010'",40.7400486,-73.9893018,508,3.5,2023-02-25 21:12:10.730462
Z6WOPnG83sgn65SmeyGqAw,L'Artista Italian Kitchen & Bar,Italian,"'142 Hamilton Pl New York, NY 10031'",40.824373,-73.948669,38,4.0,2023-02-25 21:12:10.730475
WYhRkUATHRyXZrE55MArbA,Scalini Fedeli,Italian,"'165 Duane St New York, NY 10013'",40.71741473500126,-74.00943235989747,350,4.5,2023-02-25 21:12:10.730488
vgg1dvDP-9tFWSacN4q0nA,Coppelia,Italian,"'207 W 14th St New York, NY 10011'",40.7389111700125,-73.9999985153443,1501,4.0,2023-02-25 21:12:10.730500
JP5DnHbYWBxGRjy9_16TdQ,Bosino,Italian,"'201 W 103rd St New York, NY 10025'",40.798755,-73.9673646,67,4.5,2023-02-25 21:12:10.730512
s3jou_L_LVYGkNHiuhjlew,Boucherie West Village,Italian,"'99 7th Ave S New York, NY 10014'",40.733063,-74.0028772,2204,4.5,2023-02-25 21:12:10.730524
1mp7uP6Kz_Zz4UClVfnjFQ,Testo,Italian,"'141 Leonard St Brooklyn, NY 11206'",40.708337,-73.946965,231,4.5,2023-02-25 21:12:10.730536
sRH-6ZY0gDbS4DhfUZU6zw,Soda Club,Italian,"'155 Avenue B New York, NY 10009'",40.726654,-73.979875,57,4.5,2023-02-25 21:12:10.730547
6zxulornYzrZtafE6EgqUQ,Osteria Accademia,Italian,"'646 Amsterdam Ave New York, NY 10025'",40.79125146299497,-73.97263216071319,15,4.0,2023-02-25 21:12:10.730560
fmdEiai0e4agyTEqFUWJmw,Amarone NY,Italian,"'686 9th Ave Ste 1 New York, NY 10036'",40.7617199,-73.99002,344,4.0,2023-02-25 21:12:10.730572
xB6tFNg-H3YXL1-CmXavhg,Cara Mia,Italian,"'225 E 116th St New York, NY 10029'",40.79762,-73.93885,8,4.0,2023-02-25 21:12:10.730583
-7PnG_cD9VY-IfHGWzynmQ,Ainslie,Italian,"'76 Ainslie St Brooklyn, NY 11211'",40.712343,-73.952121,487,4.0,2023-02-25 21:12:10.730594
ZSDq6s2BFnvZEU4apxXbew,Di Palma Brothers Restaurant,Italian,"'8728 Kennedy Blvd North Bergen, NJ 07047'",40.808952,-74.007419,144,4.0,2023-02-25 21:12:10.730605
vZ5-JXlJS75k8wmPNS5U5w,Max Soha Restaurant,Italian,"'1274 Amsterdam Ave New York, NY 10027'",40.811324216443104,-73.9581736,434,4.0,2023-02-25 21:12:10.730617
jku9Fg8JsUbv_LQzg6PK4g,Lavagna,Italian,"'545 E 5th St New York, NY 10009'",40.72406,-73.98226,428,4.0,2023-02-25 21:12:10.730629
jol3Ay0RMCdJd0eSZdKOEQ,Beneci's,Italian,"'500 Harbor Blvd Weehawken, NJ 07086'",40.758870842563404,-74.02360969020963,18,4.5,2023-02-25 21:12:10.730642
C9BjYm4WyoQFPQUHmBErDg,Bird Dog,Italian,"'525 Hudson St New York, NY 10014'",40.733983,-74.006549,152,4.5,2023-02-25 21:12:10.730654
_KIjhnsaui-wF9OePRZ5NA,Gottino Enoteca e Salumeria,Italian,"'52 Greenwich Ave New York, NY 10011'",40.7358,-74.00036,316,4.0,2023-02-25 21:12:10.730665
J9xVQScnr0lYWl61_mLXMA,Lido,Italian,"'2168 Frederick Douglass Blvd New York, NY 10026'",40.8049797781916,-73.9548260014624,1164,4.0,2023-02-25 21:12:10.730678
k1zrPPGGMQdlHopP3MnxrQ,Storico,Italian,"'170 Ctr Park W New York Historical Society New York, NY 10024'",40.779469,-73.973975,217,4.0,2023-02-25 21:12:10.730690
gU6_qALmeWysg2YXMzMrtw,Serafina Fabulous Pizza,Italian,"'1022 Madison Ave New York, NY 10075'",40.7762350782493,-73.9623423504256,407,3.0,2023-02-25 21:12:10.730702
VgIiCZoUnujSMZATByk77Q,The Meatball Shop - Hell's Kitchen,Italian,"'798 9th Ave New York, NY 10019'",40.7651804928198,-73.9874866666706,493,4.0,2023-02-25 21:12:10.730779
ZFaIpks0AmQKdFvqYbj0QQ,Barbalu - Brooklyn,Italian,"'68 Bergen St Brooklyn, NY 11201'",40.68675727907743,-73.99101547782092,53,4.5,2023-02-25 21:12:10.730796
-8_vEcBA2Lqd8786S-Ss-g,Novita Restaurant,Italian,"'102 E 22nd St New York, NY 10010'",40.73918,-73.98629,425,4.0,2023-02-25 21:12:10.730808
3D6UAhoKnF3A03rX_v5ngA,Bacaro,Italian,"'136 Division St New York, NY 10002'",40.71456,-73.99154,423,4.0,2023-02-25 21:12:11.870166
qoc8jyoCBW4tw9zspA2K6Q,Jeannie's,Italian,"'225 W 57th St New York, NY 10019'",40.7662427,-73.98124349999999,23,4.5,2023-02-25 21:12:11.870196
CygcAgexrpJGY8iWp7QqnA,Antonucci Cafe,Italian,"'170 E 81st St New York, NY 10028'",40.77574,-73.95689,178,4.0,2023-02-25 21:12:11.870211
4XX-zF8h5Lvrr22_tqU6-Q,The River Café,Italian,"'1 Water St Brooklyn, NY 11201'",40.703866713051106,-73.99479360219303,1267,4.0,2023-02-25 21:12:11.870225
k4ds_s6y8S46WzVIolypLQ,Serena's Wine Bar,Italian,"'1268 2nd Ave New York, NY 10065'",40.7652988,-73.9609017,159,4.0,2023-02-25 21:12:11.870239
DtnlLLvcqeEUIyZTypHnzw,Il Mulino New York - Downtown,Italian,"'86 W 3rd St New York, NY 10012'",40.729807,-73.999159,617,4.0,2023-02-25 21:12:11.870252
nVtJOWn3XlL6MSZ-YnU6iA,Da Francesco,Italian,"'442 Graham Ave Brooklyn, NY 11211'",40.718353,-73.944677,141,4.0,2023-02-25 21:12:11.870265
eby9pE6FzmwjoYRVzDpzew,Sette Mezzo,Italian,"'969 Lexington Ave New York, NY 10021'",40.7693455389848,-73.9627933502197,84,4.0,2023-02-25 21:12:11.870277
j6fSechU9HxzbnK-kjQx1Q,San Matteo Pizza and Espresso Bar,Italian,"'1739 2nd Ave New York, NY 10128'",40.7804,-73.95012,552,4.0,2023-02-25 21:12:11.870290
vYnQYMWk_CpV8APtyFWYWA,Patrizia's Of Maspeth,Italian,"'6935 Grand Ave Maspeth, NY 11378'",40.726783,-73.894276,259,4.0,2023-02-25 21:12:11.870302
4K0doiBddco60kl0W04a3Q,Il Forno Hell's Kitchen,Italian,"'709  8th Ave New York, NY 10036'",40.7591217147251,-73.988647715231,300,3.5,2023-02-25 21:12:11.870315
0SakkRuHhECsDsZ8mRkisQ,Triangolo Restaurant,Italian,"'96-01 Corona Ave Corona, NY 11368'",40.742337,-73.867305,523,4.5,2023-02-25 21:12:11.870328
3uyBZNbDk2vRFBBWZOdIUA,Dominick's Restaurant,Italian,"'2335 Arthur Ave Bronx, NY 10458'",40.85434,-73.889,413,4.0,2023-02-25 21:12:11.870340
26E3j9l0XW_onVIUP-ThCw,Heidi's House By The Side Of The Road,Italian,"'308 E 78th St New York, NY 10075'",40.772189,-73.955029,652,4.5,2023-02-25 21:12:11.870352
QPEzLkO35OTYijFhs8d7-w,The Reading Room,Italian,"'16 E 46th St New York, NY 10017'",40.7555,-73.97802,44,5.0,2023-02-25 21:12:11.870364
JL_p-OHtSEYVfoeLQQgqDA,Casellula,Italian,"'401 W 52nd St New York, NY 10019'",40.76499,-73.98835,951,4.0,2023-02-25 21:12:11.870375
ZUrGqOG2cetGI-KKXk3c2g,Chazz Palminteri Italian Restaurant - New York,Italian,"'30 West 46th St New York, NY 10036'",40.756473,-73.980563,335,4.0,2023-02-25 21:12:11.870387
FpgzHQMSNTTjagrKXxOw5A,San Matteo Pizzeria e Cucina,Italian,"'1559 2nd Ave New York, NY 10028'",40.7746799,-73.95443,389,3.5,2023-02-25 21:12:11.870399
-KrQ1gOiyXCbffsWyc5SNQ,The Leopard at des Artistes,Italian,"'1 W 67th St New York, NY 10023'",40.773515,-73.978841,273,4.0,2023-02-25 21:12:11.870411
nvTE9vtXCoYvF9-l6PZMVw,Uva Next Door,Italian,"'1484 2nd Ave New York, NY 10075'",40.77223189920225,-73.95566751924939,70,4.0,2023-02-25 21:12:11.870424
2_3W7NFFN3m4U_8ffgEuyQ,Cafe Spaghetti,Italian,"'126 Union St Brooklyn, NY 11231'",40.68412,-74.0024,67,4.5,2023-02-25 21:12:11.870436
Q9F2ocrmYuGt1yn3M7MOBw,Lucali,Italian,"'575 Henry St Brooklyn, NY 11231'",40.681840746711224,-74.0003327,1938,4.0,2023-02-25 21:12:11.870448
MCnexHfsclcOpLHS4_2U0A,San Carlo Osteria Piemonte,Italian,"'90 Thompson St New York, NY 10012'",40.72517,-74.00212,276,4.5,2023-02-25 21:12:11.870460
XlhWNQRGoWyybfXpGBgE3Q,Il Mulino New York - Uptown,Italian,"'37 E 60th St New York, NY 10021'",40.764144,-73.970195,272,3.0,2023-02-25 21:12:11.870472
KL6AUMQI_Ae7_brkK0fy_w,La Vela Dining & Bar,Italian,"'558 11th Ave New York, NY 10036'",40.761082,-73.997872,189,4.0,2023-02-25 21:12:11.870484
iutTifH0Xy0UkN86vEvV2Q,Aria Wine Bar,Italian,"'14 Bedford St West Village New York, NY 10014'",40.7290058570751,-74.0033128150578,38,4.5,2023-02-25 21:12:11.870496
Jwb556DrGTEZryeV7XgZmQ,Bar Primi,Italian,"'325 Bowery New York, NY 10003'",40.725639,-73.991714,763,3.5,2023-02-25 21:12:11.870509
b-VbRreVGS9HQLwhYol5Xw,Don Filippo Restaurant,Italian,"'1133 Lexington Ave New York, NY 10021'",40.774562,-73.958892,191,4.0,2023-02-25 21:12:11.870520
gTEoEsssfbjl76Opf5bP9g,L'Amico NYC,Italian,"'849 6th Ave Eventi Hotel New York, NY 10001'",40.7471761,-73.9898915,548,3.5,2023-02-25 21:12:11.870532
rJfGgBleDYCVq2rkBr_w-Q,Barano,Italian,"'26 Broadway Brooklyn, NY 11249'",40.710372,-73.96794,309,4.5,2023-02-25 21:12:11.870544
ZamvzoxEKiJEboO0ZUdogw,Amici Ristorante,Italian,"'165 Mulberry St New York, NY 10013'",40.71981,-73.99722,176,4.5,2023-02-25 21:12:11.870555
wCj2FSi9o6iosMIMNIIZsA,Loreto Italian Kitchen & Bar,Italian,"'280 Ashland Pl Brooklyn, NY 11217'",40.687037,-73.978577,94,4.5,2023-02-25 21:12:11.870567
xeC9vn3dxVVzAMR_aFwfXg,IL Brigante,Italian,"'214 Front St New York, NY 10038'",40.707492,-74.002571,490,4.0,2023-02-25 21:12:11.870579
YT5Ywu9y190B4IGIlBetzA,Morandi,Italian,"'211 Waverly Pl New York, NY 10014'",40.73534,-74.00151,777,3.5,2023-02-25 21:12:11.870590
IEb99GmOvg585gmwmm4iNA,Azalea Ristorante,Italian,"'224 W 51st St New York, NY 10019'",40.76284953588084,-73.98522287224887,324,4.0,2023-02-25 21:12:11.870602
FQ_9HzcX6_vLFnNIJ30jiA,Sant Ambroeus Brookfield,Italian,"'200 Vesey St New York, NY 10281'",40.713713,-74.014797,77,4.0,2023-02-25 21:12:11.870615
XVMzBs7wGeU5BWgyBL3xyQ,Ardesia Wine Bar,Italian,"'510 W 52nd St New York, NY 10019'",40.7660831005947,-73.9914581179619,405,4.0,2023-02-25 21:12:11.870627
7AknGS1qVEyq_pHfmjkZtg,Wolf at Nordstrom NYC,Italian,"'225 W 57th St New York, NY 10019'",40.766449907700014,-73.98159218717193,108,4.5,2023-02-25 21:12:11.870640
ft2OPgLsquG9d7XrBLULng,ALIDORO - Bryant Park,Italian,"'18 E 39th St New York, NY 10016'",40.75097,-73.98108,266,4.0,2023-02-25 21:12:11.870653
-58--bg-KKUNArp18U4llA,da Umberto,Italian,"'107 W 17th St New York, NY 10011'",40.7396659851074,-73.9958267211914,217,4.0,2023-02-25 21:12:11.870665
y9y6V8va7yt_TUnoO68z0w,Trattoria Napoli,Italian,"'4525 Broadway Union City, NJ 07087'",40.77794,-74.01825,166,4.5,2023-02-25 21:12:11.870677
Xu8H24NxJJxEE-9wGp_AMA,The Brazen Tavern,Italian,"'356 W 44th St New York, NY 10036'",40.7593269348145,-73.9913101196289,424,4.5,2023-02-25 21:12:11.870689
GOEBF8Odq1SPdz4PWJx6PQ,Serafina Italian Restaurant Always,Italian,"'33 E 61st St New York, NY 10065'",40.764789,-73.969779,391,3.0,2023-02-25 21:12:11.870701
q0HBfS9eJ9AeuaWQ3Ronqw,Joe G Pizza & Restaurant,Italian,"'244 W 56th St New York, NY 10019'",40.76564,-73.9830099,166,4.0,2023-02-25 21:12:11.870713
mWS4umRg2AyykyAClMrIRw,The Penrose,Italian,"'1590 2nd Ave New York, NY 10028'",40.775427,-73.953115,1417,4.0,2023-02-25 21:12:11.870725
zOmgO8Di9Ui2bQHqSarUKg,John's of Times Square,Italian,"'260 W 44th St New York, NY 10036'",40.75823,-73.98836,2376,4.0,2023-02-25 21:12:11.870736
rTzojTIarMjh_X7YPliySw,Zio Luigi,Italian,"'42-15 Queens Blvd Sunnyside, NY 11104'",40.7438632,-73.9220898,153,4.5,2023-02-25 21:12:11.870748
V0zC3awsklyxC0GFzmaTLg,Sfilatino Italian Gourmet,Italian,"'342 W 57th St New York, NY 10019'",40.7675056,-73.9851073,221,4.0,2023-02-25 21:12:11.870760
vEYEs9McRtRdKBp2XfRNZA,Finestra Restaurant,Italian,"'1370 York Ave New York, NY 10021'",40.76751,-73.95288,118,4.0,2023-02-25 21:12:11.870771
34NLHG1QXT2RbTOKCU7KHg,Cafe Paradiso,Italian,"'144 W 65th St New York, NY 10023'",40.7733834,-73.9835585,1,4.0,2023-02-25 21:12:11.870783
1XK53gaHMFQIA4VW3B6k1Q,Abaita,Italian,"'145 E 49th St New York, NY 10017'",40.755541483222,-73.9718742367706,110,4.5,2023-02-25 21:12:13.870283
GVOjDvKHLoo21n3Uip1ETg,Leo's Grandevous,Italian,"'200 Grand St Hoboken, NJ 07030'",40.73984,-74.036244,352,3.5,2023-02-25 21:12:13.870314
YmUKLOG4sTAShvyURuq2zw,Trattoria Bianca,Italian,"'481 8th Ave New York, NY 10001'",40.752702,-73.993694,163,3.5,2023-02-25 21:12:13.870380
f1A_dUs9FOIX6fl8DPQGgA,Macchina,Italian,"'110 Bedford Ave Brooklyn, NY 11249'",40.72001988013028,-73.95553998649122,3,3.0,2023-02-25 21:12:13.870397
NG-vmMrBZlxAZrxgoiromg,TAPPO NYCThinCrust Pizza,Italian,"'49 W 24th St New York, NY 10010'",40.74337,-73.99153,559,4.0,2023-02-25 21:12:13.870411
MTQpqHo-cCAPK7c9fd6zHw,Il Mattone,Italian,"'49 Beach St New York, NY 10013'",40.720799,-74.0091255,108,4.5,2023-02-25 21:12:13.870424
pFesQXdrv75mTDztZzOiVg,Angelo's Pizza,Italian,"'1043 2nd Ave New York, NY 10022'",40.758151486516,-73.9662031084299,278,3.0,2023-02-25 21:12:13.870437
-_4i_FQ1Tt_aMU904O82Ow,Crompton Ale House,Italian,"'159 W 26th St New York, NY 10001'",40.7459087,-73.9937093,247,4.0,2023-02-25 21:12:13.870449
7zk4bUsLYR_Jw-Ol-3ao9A,Dragon's,Italian,"'Madsion Ave Manhattan, NY 10173'",40.7540943,-73.9783245,2,5.0,2023-02-25 21:12:13.870462
-0fjWWC2SY6kNxGfD8PKGg,Palermo Restaurant & Bar,Italian,"'2392 21st St Astoria, NY 11105'",40.7769088448014,-73.9212289547099,291,4.5,2023-02-25 21:12:13.870474
hFeGYPt9M5dd_KXG9a_ePQ,Patsy’s Pizzeria,Italian,"'206 E 60th St New York, NY 10022'",40.76177,-73.96575,460,3.5,2023-02-25 21:12:13.870487
UpnHg_984LLZ28-kBB5MSQ,Bella Luna Restaurant,Italian,"'574 Columbus Ave New York, NY 10024'",40.787762,-73.971458,338,3.5,2023-02-25 21:12:13.870500
K9kL1ice5jlkPXcNyTus3Q,Pasta Lovers Trattoria,Italian,"'142 W 49th St New York, NY 10019'",40.76003,-73.98291,478,3.5,2023-02-25 21:12:13.870512
KMiRIUS2gdukQRihHkPLmw,Viva cucina,Italian,"'85 2nd Ave New York, NY 10003'",40.72676,-73.98923,29,4.0,2023-02-25 21:12:13.870524
rbIrit8gZwfyEOdEOeX7jg,Orso,Italian,"'322 W 46th St New York, NY 10036'",40.759994,-73.989025,197,4.0,2023-02-25 21:12:13.870535
TN1dGAwvNevkzXfL0sU41A,BLVD Wine Bar,Italian,"'4720 Center Blvd Long Island City, NY 11109'",40.74596,-73.9575,178,4.0,2023-02-25 21:12:13.870547
NqwwyMMXIS-JnwdDQBQT9A,Bazár Tapas Bar & Restaurant,Italian,"'31 W 26th St New York, NY 10010'",40.744449,-73.990068,726,4.0,2023-02-25 21:12:13.870558
2F-7XCoPS1mbdy9ioqWuqw,Serafina,Italian,"'2737 Broadway New York, NY 10025'",40.80043,-73.96828,123,3.5,2023-02-25 21:12:13.870571
j7K-Pevawo8PN3r0WyEE_g,Macoletta,Italian,"'28-15 24th Ave Astoria, NY 11102'",40.7732423,-73.9164153,204,4.5,2023-02-25 21:12:13.870582
C9mE4FfzF56wttmakkwcNQ,TALEA,Italian,"'61 Bergen St Brooklyn, NY 11201'",40.68713792548407,-73.9908801,19,5.0,2023-02-25 21:12:13.870594
wtfEOjfOWVuugf-SuCC5yA,Avra Madison,Italian,"'14 E 60th St New York, NY 10022'",40.7643,-73.971721,426,4.0,2023-02-25 21:12:13.870606
FON3TceJNsTC0I0mzBwOKg,Fig & Olive,Italian,"'10 E 52nd St New York, NY 10022'",40.75938,-73.97558,1245,3.5,2023-02-25 21:12:13.870618
y8XaPw0U9WzUj8MUaW6HmA,Mikey Pomodoro,Italian,"'230 Park Ave New York, NY 10169'",40.754804468873886,-73.97603280212049,20,5.0,2023-02-25 21:12:13.870630
x6_1vzeCH9YvbvIBmSr2iA,DOC Wine Bar,Italian,"'83 N 7th St Brooklyn, NY 11249'",40.71966,-73.96046,258,4.0,2023-02-25 21:12:13.870642
_yMBdYh5p--WtF3n4a2iNw,Il Mulino Prime - Gramercy,Italian,"'43 E 20th St New York, NY 10003'",40.73875,-73.9885,49,4.0,2023-02-25 21:12:13.870654
xzN2k19JXDYjOWAhNw62aw,Adoro Lei,Italian,"'287 Hudson St New York, NY 10013'",40.725612,-74.007916,356,4.5,2023-02-25 21:12:13.870665
3Ic4C60oSH1cV2jknUXSjQ,The Flatiron Room,Italian,"'37 W 26th St New York, NY 10010'",40.74452,-73.99049,995,4.5,2023-02-25 21:12:13.870677
fU22eRTnKLT2C-OFJ6eUGQ,Saraghina Pizzeria,Italian,"'350 Lewis Ave Brooklyn, NY 11233'",40.6837407,-73.9353473,1003,4.0,2023-02-25 21:12:13.870688
sB8-R8-FYj-kJrSzTlbmgw,Coppola's West,Italian,"'206 W 79th St New York, NY 10024'",40.7831637424309,-73.9789159423279,340,3.5,2023-02-25 21:12:13.870701
nw85LVh6H3JIiw3ugvhAmw,Lasagna Chelsea Restaurant,Italian,"'196 8th Ave New York, NY 10011'",40.7432418,-73.99970359599844,596,3.5,2023-02-25 21:12:13.870714
OLa3-KQO9rHjswo55E3Jgg,Trattoria La Sorrentina,Italian,"'7831 Bergenline Ave North Bergen, NJ 07047'",40.80174,-74.00698,647,4.5,2023-02-25 21:12:13.870726
UF9F0A4e7AJHzNPG5zrHUQ,The Beast Next Door,Italian,"'42-51 27th St Long Island City, NY 11101'",40.74881,-73.94073,250,4.5,2023-02-25 21:12:13.870738
r_fUOUhz-pHZxFDV1hzy0w,Peasant,Italian,"'194 Elizabeth St New York, NY 10012'",40.72171,-73.99428,769,4.0,2023-02-25 21:12:13.870750
I0i9YzRBQn6MKIUFIHpeBQ,Park Italian Gourmet,Italian,"'60 W 45th St New York, NY 10036'",40.7562054271632,-73.9814829826355,222,4.0,2023-02-25 21:12:13.870762
v8G2Tik6eXhS63Es_4sveA,Bacàn,Italian,"'79 Grand St Brooklyn, NY 11249'",40.715855693840986,-73.96414879999999,32,4.0,2023-02-25 21:12:13.870775
1tiHa-hrvPMBJ-Fk69YWPg,Concettina Restaurant,Italian,"'160-24 Willets Pt Blvd Whitestone, NY 11357'",40.7806912,-73.8017165,111,4.5,2023-02-25 21:12:13.870787
I6Wg1NFYAAVzM2OpsdqcXA,Grand Vin,Italian,"'500 Grand St Hoboken, NJ 07030'",40.74331,-74.03517,531,4.0,2023-02-25 21:12:13.870799
wOq-Jt26jnFf_rhF4r5D6w,Scampi,Italian,"'30 W 18th St New York, NY 10011'",40.73902,-73.99358,333,4.0,2023-02-25 21:12:13.870810
mkS--Oq4UYJMQizSaKJXEw,Enzos of Arthur Avenue,Italian,"'2339 Arthur Ave Bronx, NY 10458'",40.854716697326715,-73.8887236,388,4.0,2023-02-25 21:12:13.870822
WHX90qTIuHdWHWDY5g9COw,Apulia,Italian,"'1319 Washington St Hoboken, NJ 07030'",40.75297,-74.02582,167,4.0,2023-02-25 21:12:13.870834
nRO136GRieGtxz18uD61DA,Eleven Madison Park,Italian,"'11 Madison Ave New York, NY 10010'",40.7416907417333,-73.9872074872255,2374,4.5,2023-02-25 21:12:13.870846
EL5Y6BSinmUte5VW4Eh54Q,Frank,Italian,"'88 2nd Ave New York, NY 10003'",40.7268483205383,-73.9887172038649,784,3.5,2023-02-25 21:12:13.870859
QhRQE6nOMLd00kV2k-IsbQ,Augustinos kitchen and bar,Italian,"'1104 Washington St Hoboken, NJ 07030'",40.75024,-74.02732,363,4.0,2023-02-25 21:12:13.870871
ehUuSk5gPTCQmwS_ubgKRA,Upstate Craft Beer & Oyster Bar,Italian,"'95 1st Ave New York, NY 10003'",40.726373,-73.986557,2051,4.5,2023-02-25 21:12:13.870883
h2HPWsBX3ABNvLHbP3KzqA,La Stanza,Italian,"'334 B Lexington Ave New York, NY 10016'",40.74969,-73.9775,51,4.0,2023-02-25 21:12:13.870895
WHQpLvxkCK_BMtF8pIShnQ,Carroll Place,Italian,"'157 Bleecker St New York, NY 10012'",40.7287,-73.99971,1241,4.0,2023-02-25 21:12:13.870906
elPjOCDb8WmOpaQEI-AAOw,Forno Siciliano,Italian,"'43-19 Ditmars Blvd Astoria, NY 11105'",40.7711294255972,-73.9031770938873,103,4.0,2023-02-25 21:12:13.870918
q6ux26c-SfK-679y9lvVbw,Settepani,Italian,"'196 Lenox Ave New York, NY 10026'",40.80435,-73.94766,276,3.5,2023-02-25 21:12:13.870930
00kdvS6FY0gTN5BV03tx5Q,Peak,Italian,"'30 Hudson Yards Fl 101 New York, NY 10001'",40.7541644,-74.0009082,364,4.5,2023-02-25 21:12:13.870942
Gzwpeu4rw8T-XDYCllegxQ,Nello,Italian,"'696 Madison Ave New York, NY 10065'",40.765797,-73.970076,412,2.0,2023-02-25 21:12:13.870954
PajKY49h4SpvSr-TW3lwCQ,Rafele Ristorante,Italian,"'29 7th Ave S New York, NY 10014'",40.7309471231405,-74.0041171779098,528,4.0,2023-02-25 21:12:15.441325
syu8oCU9h3X9hfAE_lpADw,Terra Wine Bar,Italian,"'222 W Broadway New York, NY 10013'",40.71928,-74.00647,421,3.5,2023-02-25 21:12:15.441358
cpN0ixPR2l3QFA8Uf1BhCQ,Luna Rossa,Italian,"'347 E 85th St New York, NY 10028'",40.776596,-73.950351,139,4.0,2023-02-25 21:12:15.441372
dvkQIG20RjgNi-SwRr_1CQ,MAMO Restaurant,Italian,"'323 W Broadway New York, NY 10013'",40.72186,-74.00382,338,4.0,2023-02-25 21:12:15.441385
R-biStUvl2zuhIQFk40GsQ,OCabanon,Italian,"'245 W 29th St New York, NY 10001'",40.7486725,-73.9945145,446,4.0,2023-02-25 21:12:15.441398
nTCFXqiQPTvDfnAxHfA64A,Trattoria Tra di Noi,Italian,"'622 East 187th St Bronx, NY 10458'",40.85493,-73.8869,179,4.0,2023-02-25 21:12:15.441410
srhEv1OqoK9W5JRdiMWDyw,Ayza Wine & Chocolate Bar,Italian,"'11 W 31st St New York, NY 10001'",40.7471774721074,-73.987011312828,2083,4.0,2023-02-25 21:12:15.441423
cRmRAl5HHJcysKBSrHivHA,Lamano Chelsea,Italian,"'265 W 20th St New York, NY 10011'",40.7433797337789,-73.9994259551167,120,4.0,2023-02-25 21:12:15.441436
1LIptXhtDh58vAA-QPFL4w,Cask,Italian,"'167 E 33rd St New York, NY 10016'",40.745414,-73.979004,1463,4.0,2023-02-25 21:12:15.441516
bxxP-1LQURlkom-geT2J8Q,Pastafina,Italian,"'635 2nd Ave New York, NY 10016'",40.74528,-73.97574,3,3.5,2023-02-25 21:12:15.441531
BgGz5IdV53bGb4o7opR5zg,Arturo's,Italian,"'106 W Houston St New York, NY 10012'",40.7273563342024,-74.0004944801331,765,4.0,2023-02-25 21:12:15.441544
01eI6pT0doZiu0nm-Gl7RA,Trattoria 35,Italian,"'213-15 35th Ave Bayside, NY 11361'",40.76902,-73.77417,530,4.0,2023-02-25 21:12:15.441557
KEEXuHCYhsQJ-zpJhu98bA,Joe's Pizza,Italian,"'1435 Broadway New York, NY 10018'",40.7547,-73.98696,1781,4.0,2023-02-25 21:12:15.441568
Cnqy9w1BFXZFEaChfox0ow,Rosemary's,Italian,"'18 Greenwich Ave New York, NY 10011'",40.734863,-73.99974,1213,3.5,2023-02-25 21:12:15.441580
uYHN9Vw3V1ajDGRnNDtbYw,Michael's of Brooklyn,Italian,"'2929 Ave R Brooklyn, NY 11229'",40.6076329987397,-73.9428921973385,347,4.5,2023-02-25 21:12:15.441593
kzd10IXi3dTjoPw0TDj8tA,Osteria Nando,Italian,"'1589 2nd Ave New York, NY 10028'",40.775666,-73.953649,155,4.0,2023-02-25 21:12:15.441605
k2sHdf6WeY22pK3hs6mtqA,Legasea Bar & Grill,Italian,"'485 7th Ave New York, NY 10018'",40.75245723977984,-73.98936677488305,345,4.0,2023-02-25 21:12:15.441618
1OZPOWZwJr-hpvMt6TD4ug,Milkflower,Italian,"'3412 31st Ave Astoria, NY 11106'",40.7628961,-73.9207081,748,4.5,2023-02-25 21:12:15.441630
zv29TbzPs9-rD5ql0qWw5A,The Shadmoor,Italian,"'1066 2nd Ave New York, NY 10022'",40.75866,-73.9655499,428,4.0,2023-02-25 21:12:15.441642
EJOpdpy6QPTtmC7Fn04yHw,Patsy's Pizzeria,Italian,"'61 W 74th St New York, NY 10023'",40.7785204,-73.9769718,575,3.5,2023-02-25 21:12:15.441654
h1_zWY2PVTZ5ul0RuiJ59g,Motorino,Italian,"'510 Columbus Ave New York, NY 10024'",40.7855672,-73.9730817,282,3.5,2023-02-25 21:12:15.441665
vmUNPvduTeWu24d--TbHAg,Ops,Italian,"'346 Himrod St Brooklyn, NY 11237'",40.70276,-73.9171,184,4.5,2023-02-25 21:12:15.441677
ssGhu4n3emZ9kEPVf371IQ,Cookshop,Italian,"'156 10th Ave New York, NY 10011'",40.745731881448236,-74.00540454907613,2284,4.0,2023-02-25 21:12:15.441690
zTK8reqKrmV7U71YVHYYjg,Armani Ristorante,Italian,"'717 5th Ave Giorgio Armani New York, NY 10022'",40.7618463161798,-73.9742299834671,286,4.0,2023-02-25 21:12:15.441703
3FCxi2imtP_wMgsgsqIQOw,Bocca Di Bacco,Italian,"'635 9th Ave New York, NY 10036'",40.76024707932667,-73.99165780170934,322,3.5,2023-02-25 21:12:15.441716
TO9IICJjvcg1QhLVnap9fA,Cent'Anni,Italian,"'742 Franklin Ave Brooklyn, NY 11238'",40.6730907423467,-73.9573492245369,507,3.5,2023-02-25 21:12:15.441730
uDJw4dQiySoNCBoUalW1Ww,Lincoln Ristorante,Italian,"'142 W 65th St New York, NY 10023'",40.773384318631486,-73.98373135276117,595,4.0,2023-02-25 21:12:15.441744
kJExyhre8kocF5gI9y4IDA,Villanelle,Italian,"'15 E 12th St New York, NY 10003'",40.73441,-73.99329,104,4.5,2023-02-25 21:12:15.441757
GBjxx9AZl95cCno24Wl_QA,Fiorentina Pizzeria and Grill,Italian,"'852 8th Ave New York, NY 10019'",40.76303528104908,-73.98536470967744,39,4.5,2023-02-25 21:12:15.441770
IcEtg4yaHoe9To7Db1irBA,Made In New York Pizza,Italian,"'421 Amsterdam Ave New York, NY 10024'",40.783841,-73.977569,492,4.5,2023-02-25 21:12:15.441782
Z22s9SoQOndAey4_SULrvA,Mediterraneo Restaurant,Italian,"'1260 2nd Ave New York, NY 10065'",40.7649733,-73.9609846,361,3.0,2023-02-25 21:12:15.441795
86StyWnuGaTuY6X2e3irOg,Alice Restaurant,Italian,"'126 W 13th St New York, NY 10011'",40.73710696813969,-73.99863114881475,106,4.0,2023-02-25 21:12:15.441807
D0LsGudLqLabXbhEPMkw6A,Aumm Aumm Pizzeria & Wine Bar,Italian,"'7701 Broadway North Bergen, NJ 07047'",40.79789,-74.00231,395,4.5,2023-02-25 21:12:15.441820
YFvF4r2D-wJOgJAOvanaZQ,Gnoccheria By Luzzo's,Italian,"'234 E 4th St New York, NY 10009'",40.723315,-73.983139,511,4.0,2023-02-25 21:12:15.441832
8PyKaU-YM0HOAfxWsjcwmg,Cipriani Le Specialita,Italian,"'120 E 42nd St New York, NY 10017'",40.7516113,-73.9767134,115,4.0,2023-02-25 21:12:15.441844
uBGjcW-GuYy_qSvMykuISA,Pommes Frites,Italian,"'128 Macdougal St New York, NY 10012'",40.730022,-74.000152,1098,4.5,2023-02-25 21:12:15.441856
G-b9kvnRh0pLi4fsdcmwjg,Joseph's Restaurant,Italian,"'3 Hanover Square New York, NY 10004'",40.70499,-74.00961,90,4.0,2023-02-25 21:12:15.441868
NZaq_ygLr4N8-blY5dGx-g,Paul's On Times Square,Italian,"'136 W 42nd St New York, NY 10036'",40.75522,-73.98539,341,4.0,2023-02-25 21:12:15.441879
dsxgbkIKyu7x7JgpAKeZPA,Tarallucci E Vino - Upper West Side,Italian,"'475 Columbus Ave New York, NY 10024'",40.78436,-73.9735,158,3.5,2023-02-25 21:12:15.441891
mOoZZa6WIsgihc_TqyQcXw,Tarallucci E Vino -Union Square,Italian,"'15 E 18th St New York, NY 10003'",40.7381367771909,-73.9907283558044,411,3.5,2023-02-25 21:12:15.441904
Jgaf3JmVaPokYB3ezbhjCQ,Caravaggio,Italian,"'23 E 74th St New York, NY 10021'",40.7734565734863,-73.964729309082,142,3.5,2023-02-25 21:12:15.441918
nCH7SR7qXu0asO1GU3iqHw,The Press Lounge,Italian,"'653 11th Ave Fl 16 New York, NY 10036'",40.76452,-73.99586,1171,4.0,2023-02-25 21:12:15.441930
505bv6h3VnN6SekdHCr8Sw,Nocello,Italian,"'257 W 55th St New York, NY 10019'",40.7654190063477,-73.9833374023438,203,4.0,2023-02-25 21:12:15.441942
megxpLA5KciBJbW-jNm2RQ,Arno Ristorante,Italian,"'141 W 38th St New York, NY 10018'",40.7534599,-73.98842,265,3.5,2023-02-25 21:12:15.441954
pIyhj8qxJNInsVa53KUB1g,Casa D' Angelo,Italian,"'146 Mulberry St New York, NY 10013'",40.71891,-73.99738,34,4.0,2023-02-25 21:12:15.441966
Vm6_cXz8hbvZhot0m1aaRg,Italianissimo Ristorante,Italian,"'307 E 84th St New York, NY 10028'",40.7765,-73.95197,145,4.0,2023-02-25 21:12:15.441977
WYdrEMBXzOcxffpQczHKww,Ortomare Ristorante Pizzeria,Italian,"'994 Columbus Ave New York, NY 10025'",40.80124,-73.96161,126,4.5,2023-02-25 21:12:15.441989
KW5ScWQd16gJ9yLf4pKDvQ,Fatta Mano,Italian,"'8501 3rd Ave Brooklyn, NY 11209'",40.62417475787952,-74.0305181171787,36,4.0,2023-02-25 21:12:15.442001
m3PS0tIaa0ChcP8Y5S-DrQ,MAMA'S TOO!,Italian,"'2750 Broadway New York, NY 10025'",40.80084,-73.96766,617,3.5,2023-02-25 21:12:15.442013
d7uBG8jMKIL0kg6zqDUQmw,Daddies Pizza,Italian,"'450 Hudson St New York, NY 10014'",40.7312323032565,-74.00651060000001,23,4.5,2023-02-25 21:12:15.442026
St8a2de1vfyCxwIySBUWbA,Graziella's,Italian,"'232 Vanderbilt Ave Brooklyn, NY 11205'",40.6904563903809,-73.9696273803711,490,4.0,2023-02-25 21:12:17.021790
mlm40NxsVJUPnh3LTayaaw,Kimika,Italian,"'40 Kenmare St New York, NY 10012'",40.720572,-73.995206,331,4.0,2023-02-25 21:12:17.021820
ryvBsB9FrBBZDak87iGS1w,Sea Fire Grill,Italian,"'158 E 48th St New York, NY 10017'",40.7547045987751,-73.97222533963885,1470,4.5,2023-02-25 21:12:17.021836
vXYFa2qzppkGiOiVPrLwDQ,Don Peppe,Italian,"'135-58 Lefferts Blvd South Ozone Park, NY 11420'",40.6689814908178,-73.8216334221041,663,4.0,2023-02-25 21:12:17.021851
CAXzWJyV2UzYMAImM_YkWA,The Grill,Italian,"'99 E 52nd St New York, NY 10022'",40.75832986948616,-73.9718681,241,4.0,2023-02-25 21:12:17.021864
7cOibAFiGbSsSWo27SLIgw,Tutto A Modo Mio,Italian,"'482 Bergen Blvd Ridgefield, NJ 07657'",40.8244151,-73.9972534,384,4.0,2023-02-25 21:12:17.021876
8fr5FYU1ip0phERt1mrekg,Bohemian Restaurant,Italian,"'57 Great Jones St New York, NY 10012'",40.72639,-73.99236,817,4.5,2023-02-25 21:12:17.021889
bpPg_ILwgxHd_fqGQhmtRw,La Bella Pizza,Italian,"'373 3rd Ave Chula Vista, CA 91910'",32.63852572835588,-117.07864356362701,984,3.5,2023-02-25 21:12:17.021902
ezu7Ai6ADfHDYCklvuipWA,Arturo's,Italian,"'1617 York Ave New York, NY 10028'",40.775478,-73.947847,97,4.0,2023-02-25 21:12:17.021915
p4TYRKQ82N5Ntb6RPdLPMg,Bruno's Ristorante,Italian,"'158-22A Crossbay Blvd Howard Beach, NY 11414'",40.66006127265407,-73.84037893911108,303,4.5,2023-02-25 21:12:17.021928
afuiZyn9oOyyCpuW7wGfHQ,L'antica Pizzeria da Michele Taverna and Cafe,Italian,"'81 Greenwich Ave New York, NY 10014'",40.737052,-74.001571,1,4.0,2023-02-25 21:12:17.021942
VCaE8QSCAIThGbMq80nFYg,Harry's Table,Italian,"'235 Freedom Pl S Waterline Sq New York, NY 10019'",40.7730207,-73.9910077,47,3.0,2023-02-25 21:12:17.021955
8LQLe1jvyGwrkhVMMbA9Vw,Cara Mia Italian Trattoria,Italian,"'201 70th St Guttenberg, NJ 07093'",40.7935,-74.00573,14,4.5,2023-02-25 21:12:17.021968
fowyb5DnUydqFodInCQyQQ,Centro Pizza Bar & Italian Kitchen,Italian,"'47-23 Vernon Blvd Long Island City, NY 11101'",40.74494463643489,-73.95312334111576,206,4.0,2023-02-25 21:12:17.022019
3koQihtL0aIYzjJweMLDnw,Vini e Fritti,Italian,"'30 E 30th St New York, NY 10016'",40.744888,-73.984227,48,4.0,2023-02-25 21:12:17.022035
yIFI6afTRP-tBhY6WsUOPg,Popina,Italian,"'127 Columbia St Brooklyn, NY 11231'",40.687361962701,-74.0014251909241,88,4.5,2023-02-25 21:12:17.022048
_Klr6rynJ4b_oc7ehRPoZA,Paul & Jimmy's,Italian,"'123 E 18th St New York, NY 10003'",40.73682,-73.987251,139,4.0,2023-02-25 21:12:17.022060
GqTgQEqwf3k5JyE7DHDhjw,Numero 28 Ristorante Pizzeria Bar,Italian,"'176 2nd Ave New York, NY 10003'",40.73041,-73.98595,577,4.0,2023-02-25 21:12:17.022072
XvEz60Y0NbLxooK9AmRU8g,Piccoli Trattoria,Italian,"'522 6th Ave Brooklyn, NY 11215'",40.66518210863434,-73.98653954110445,562,4.5,2023-02-25 21:12:17.022085
_V7YsDQ4Lb41rqfkuPzm1w,Trattoria Pesce Pasta,Italian,"'262 Bleecker St New York, NY 10014'",40.73115,-74.00319,289,4.0,2023-02-25 21:12:17.022098
8-Ug0Zjs5sL6MARspRJ7CA,Bond 45,Italian,"'221 W 46th St New York, NY 10036'",40.7591637016814,-73.9859788257256,872,3.5,2023-02-25 21:12:17.022111
iS5UhBr3RuXQntsAH2XMNA,Pep’s On Grand,Italian,"'197 Grand St New York, NY 10013'",40.71897,-73.99693,29,4.5,2023-02-25 21:12:17.022123
h9rymMeMUMOxQ9d93U0YDg,Baker & Co,Italian,"'259 Bleecker St New York, NY 10014'",40.7313423,-74.0028996,713,4.0,2023-02-25 21:12:17.022136
3xOs6rJGDSi6T8f-XiTg7w,Serafina Cafe,Italian,"'58th St 7th Ave New York, NY 10019'",40.76493,-73.98047,14,4.0,2023-02-25 21:12:17.022148
gJg_Gh2lqrCprDzR6ZP9QQ,314 Pizza Pasta & Cocktail Bar,Italian,"'3143 Broadway New York, NY 10027'",40.8141969,-73.9598383,132,4.5,2023-02-25 21:12:17.022160
7EAj8VJX_DoKlZdCJBE4Pg,La Bella Vita,Italian,"'163 Mulberry St New York, NY 10013'",40.719816,-73.997403,469,4.0,2023-02-25 21:12:17.022172
VLGmFHE4s0Sfu0piMVQa1Q,Hold Fast Kitchen & Spirits,Italian,"'364 W 46th St New York, NY 10036'",40.76064,-73.99023,569,4.5,2023-02-25 21:12:17.022184
hq_lDiSnheYecX6H0hT7Fg,La Trattoria,Italian,"'844 2nd Ave New York, NY 10017'",40.75161,-73.97069,90,3.0,2023-02-25 21:12:17.022196
sZZtK7rro9PK0fBH6L36Eg,Sagra Pizza Bar,Italian,"'62 Carmine St New York, NY 10014'",40.72969,-74.00412,130,4.0,2023-02-25 21:12:17.022207
OFfZUS-nu6NDnsWe1B2bUQ,Tonchin,Italian,"'13 W 36th St New York, NY 10018'",40.7502727,-73.9844951,1818,4.5,2023-02-25 21:12:17.022219
ddyYKrNWkdc5mudrmLaTvA,Flora,Italian,"'1021 8th Ave Brooklyn, NY 11215'",40.66458,-73.9800099,90,4.5,2023-02-25 21:12:17.022231
FCl5446Rovk1HRHoXpojdg,LAVO,Italian,"'39 E 58th St New York, NY 10022'",40.762931,-73.971433,1108,3.5,2023-02-25 21:12:17.022243
R0tLL3xstwMDf27US0y-Ow,Bella Notte,Italian,"'104 Audubon Ave New York, NY 10032'",40.842267,-73.937457,14,4.5,2023-02-25 21:12:17.022254
pL2tig3FxJcrZ4wDIO4TsA,Eataly NYC Downtown,Italian,"'101 Liberty St Fl 3 New York, NY 10006'",40.709716,-74.011714,1188,3.5,2023-02-25 21:12:17.022266
W0sXHSSpkiMEDJiBmSLNYQ,Trestle,Italian,"'34-02 Broadway Astoria, NY 11106'",40.7606154,-73.9229562,514,4.5,2023-02-25 21:12:17.022278
dbCTJp9ENDVIquxBWONzWQ,Pomodoro,Italian,"'518 9th Ave New York, NY 10018'",40.75624,-73.9939,138,4.0,2023-02-25 21:12:17.022290
YMHxv6VFriKz1KevVXl0Cw,Gallow Green,Italian,"'542 W 27th St New York, NY 10001'",40.7508871,-74.0041249,906,3.5,2023-02-25 21:12:17.022301
rhCs1nF5KTNwx-4YeyoK3g,Bartolino's Fine Italian Pizza,Italian,"'3411 Broadway Astoria, NY 11106'",40.7607386113415,-73.9223789038732,54,4.0,2023-02-25 21:12:17.022314
P2CTp4xyaNCe2AXSiLeOSQ,The Odeon,Italian,"'145 W Broadway New York, NY 10013'",40.71692,-74.00792,745,4.0,2023-02-25 21:12:17.022327
ED2I3t5rOf81cddCsLA4tw,Terroir Tribeca,Italian,"'24 Harrison St New York, NY 10013'",40.718804998517,-74.0099987815497,316,4.0,2023-02-25 21:12:17.022339
txSykTj5nbwmpiVNoK_Dyg,Blue Ribbon Brasserie - SoHo,Italian,"'97 Sullivan St New York, NY 10012'",40.725456,-74.003027,995,4.5,2023-02-25 21:12:17.022351
T_vLaKsuyJPDpsrSZuc7WA,Battello,Italian,"'502 Washington Blvd Jersey City, NJ 07310'",40.725357,-74.032278,719,3.5,2023-02-25 21:12:17.022363
UM3DuPsG6UKdmsC23O_Icw,Aska,Italian,"'47 South 5th St Brooklyn, NY 11249'",40.71226,-73.96641,141,4.5,2023-02-25 21:12:17.022375
8Yv1jmEmwaB5-rsIVIXAig,LA Traviata Pizzeria,Italian,"'101 W 68th St New York, NY 10023'",40.77505,-73.98088,201,3.5,2023-02-25 21:12:17.022386
wTaomJ5xoi-c7R_xKFmcpA,Positano Restaurant,Italian,"'10018 4th Ave Brooklyn, NY 11209'",40.6127378,-74.0339271,514,4.0,2023-02-25 21:12:17.022398
6gzQLjzJk25ePm_JS7ZAug,Esme,Italian,"'999 Manhattan Ave Brooklyn, NY 11222'",40.73322607409529,-73.95492695812946,393,4.5,2023-02-25 21:12:17.022411
gjZpcE-X4zQOEqWQPelLgg,Max,Italian,"'134 W Broadway New York, NY 10013'",40.71688,-74.00835,475,3.5,2023-02-25 21:12:17.022423
lA6IvTF7J8fNC5puhyS3PA,Bellini,Italian,"'483 Columbus Ave New York, NY 10024'",40.78457,-73.97317,275,3.5,2023-02-25 21:12:17.022435
XsElXaLxUPKquI78poB8yw,Maison Pickle,Italian,"'2315 Broadway New York, NY 10024'",40.7870473,-73.9781361,1597,4.0,2023-02-25 21:12:17.022446
KgxzEspPDlfZ-6_HX70mfg,Ninos Aq,Italian,"'35-01 Ditmars Blvd Astoria, NY 11105'",40.774944,-73.908585,228,4.0,2023-02-25 21:12:17.022458
W1pBIFhkjJwjTe2P7o57yg,Lilly's Cocktail and Wine,Italian,"'50 W 72nd St New York, NY 10023'",40.77698,-73.9785,149,4.0,2023-02-25 21:12:18.587403
qgY41g_eg0eNzewCXmKcaA,Lillo Cucina Italiana,Italian,"'331 Henry St Brooklyn, NY 11201'",40.69023,-73.99634,195,5.0,2023-02-25 21:12:18.587430
-4PCSqieO2rJ4-htOh8v0w,Lexington Brass,Italian,"'517 Lexington Ave New York, NY 10017'",40.7552634948238,-73.9729699790478,891,3.5,2023-02-25 21:12:18.587444
74zaTegd7fnS6llTesn_Dg,Fragole Ristorante,Italian,"'394 Court St Brooklyn, NY 11231'",40.68087,-73.99688,415,4.5,2023-02-25 21:12:18.587457
s1Epxy3pBMBxJH32snw17w,ALIDORO - The Hugh,Italian,"'601 Lexington Ave New York, NY 10022'",40.75878,-73.97048,25,4.0,2023-02-25 21:12:18.587467
qs5x7OfTtpgQ4xQeN7N4Iw,Saraghina Caffè,Italian,"'195 DeKalb Ave, Brooklyn, NY 11205 Brooklyn, NY 11205'",40.6897188,-73.9719095,46,3.0,2023-02-25 21:12:18.587478
TqumO9YCFsKv3plJRsyP0A,The Greats Of Craft,Italian,"'983 1st Ave New York, NY 10022'",40.7563277,-73.964548,91,4.5,2023-02-25 21:12:18.587490
AT12PEBFRWFox6l2tr7w4w,Junior's Restaurant & Bakery - 49th St.,Italian,"'1626 Broadway @49th Street New York, NY 10019'",40.76095,-73.9841299,953,4.0,2023-02-25 21:12:18.587500
penftLPo6kx6qCtbsuyLog,Petaluma,Italian,"'1356 1st Ave New York, NY 10021'",40.7682492,-73.9553474,262,3.5,2023-02-25 21:12:18.587512
DE51ImtLSVPzNLikpOcocA,Vicolina,Italian,"'1302 Madison Ave New York, NY 10128'",40.78497,-73.956,47,3.0,2023-02-25 21:12:18.587522
CcxreLJbZsO6Z775-hMWpw,St Tropez West Village,Italian,"'304 W 4th St New York, NY 10014'",40.73704,-74.00386,257,4.5,2023-02-25 21:12:18.587532
pGP-wdfAsn-lcccqq4JPuw,Italian Trattoria IT,Italian,"'520 7th Ave New York, NY 10018'",40.75369,-73.98881,1,5.0,2023-02-25 21:12:18.587542
DLjd-m5JRYL18C5grvcCVA,Tutt Appost,Italian,"'289 5th Ave Brooklyn, NY 11215'",40.673551,-73.982335,46,4.5,2023-02-25 21:12:18.587552
Ntia3g3RhsV9g-yHWsS0og,Fontana Tritone,Italian,"'248 Fort Lee Rd LEONIA, NJ 07605'",40.8618199,-73.9883783,69,4.5,2023-02-25 21:12:18.587562
i6xP3ZfL78PXg2gjsOz-og,Noidue Carne,Italian,"'141 W 69th St New York, NY 10023'",40.77625,-73.98146,57,4.0,2023-02-25 21:12:18.587572
bjzBkF2FFMsdkCk50xseFQ,Etcetera Etcetera,Italian,"'352 W 44th St New York, NY 10036'",40.75926,-73.99115,482,4.0,2023-02-25 21:12:18.587582
NmzDoAerQUdvMNT90gk4Xw,Addictive NYC,Italian,"'19 West 46th St New York, NY 10036'",40.75655,-73.97996,46,4.0,2023-02-25 21:12:18.587592
-VvrQWfbkQWeuGC4L0KcfQ,Il Buco Alimentari & Vineria,Italian,"'53 Great Jones St New York, NY 10012'",40.7264539,-73.992549,596,3.5,2023-02-25 21:12:18.587602
rgk5Yg9_dESPrmrFWTIH0A,Biamo,Italian,"'178 W Houston St New York, NY 10014'",40.72877,-74.00318,4,4.0,2023-02-25 21:12:18.587612
dhKZRnt3DwfSu48OdPDdvA,Pasta Louise Cafe,Italian,"'803 8th Ave Brooklyn, NY 11215'",40.666091,-73.9787254,238,4.5,2023-02-25 21:12:18.587669
ApbLKC5c3xoYn5XOJ85Y3g,Aliada,Italian,"'2919 Broadway Astoria, NY 11106'",40.76254,-73.926199,445,4.0,2023-02-25 21:12:18.587682
TOlIQbDBIHq_or6JcXx4ZQ,Sauced,Italian,"'331 Bedford Ave Brooklyn, NY 11211'",40.7126701394003,-73.9623194526208,52,4.0,2023-02-25 21:12:18.587693
SaYTVG7wHCMDBofHCgXPaA,Dutch Freds,Italian,"'307 W 47th St New York, NY 10036'",40.760835,-73.987823,1948,4.5,2023-02-25 21:12:18.587704
7KtUcXF28tDEv8CBbgWNJw,Bar Felice,Italian,"'1591 1st Ave New York, NY 10028'",40.7748027,-73.95113,33,4.0,2023-02-25 21:12:18.587714
oEjWa3AETzPQfM3S1wRiLA,Due,Italian,"'1396 3rd Ave New York, NY 10075'",40.77466,-73.95724,92,4.0,2023-02-25 21:12:18.587723
fEig4z0y_qCMRLvW7HRuqA,Harding's,Italian,"'32 E 21st St New York, NY 10010'",40.7393229,-73.9887163,399,4.0,2023-02-25 21:12:18.587733
fFkqEyupjc5x2iJQIPcpLw,Ruffian,Italian,"'125 E 7th St New York, NY 10009'",40.7264,-73.98411,265,4.5,2023-02-25 21:12:18.587743
DF7PV0DE9z0LM4ae6XYeYg,Harry's Italian,Italian,"'2 Gold St New York, NY 10038'",40.707555318913,-74.006898168681,628,3.5,2023-02-25 21:12:18.587754
5gcrlif2enGxj7eKAoz-5g,Terravita,Italian,"'4193 Broadway New York, NY 10033'",40.84807,-73.93803,324,4.5,2023-02-25 21:12:18.587765
9lDqOfKeEB15AWfsWIq8mA,Mario's Restaurant,Italian,"'2342 Arthur Ave Bronx, NY 10458'",40.8542,-73.88857,320,4.0,2023-02-25 21:12:18.587775
KpBfFpjzsGvvqAzCasVW0g,Extra Virgin,Italian,"'259 W 4th St New York, NY 10014'",40.7353962496717,-74.0031888223197,1367,3.5,2023-02-25 21:12:18.587787
DI_FoHY84hfzTWwlzF76aw,Benito One,Italian,"'174 Mulberry St New York, NY 10013'",40.7200188460948,-73.9969412164592,808,4.0,2023-02-25 21:12:18.587798
6tGW6KMFB1rLGInE6sB3KA,Kaia Wine Bar,Italian,"'1614 3rd Ave New York, NY 10128'",40.7819,-73.95197,516,4.0,2023-02-25 21:12:18.587808
TfYOx6Ql-wWdjGpgVaNcpQ,De Novo Edgewater,Italian,"'1257 River Rd Edgewater, NJ 07020'",40.8268814086914,-73.973518371582,300,4.0,2023-02-25 21:12:18.587819
sppl_-Hw-UMX5tlTd_0poA,Serafina Italian Restaurant Meatpacking,Italian,"'7 Ninth Ave New York, NY 10014'",40.739633,-74.00661189520561,397,3.0,2023-02-25 21:12:18.587830
qnQG2OYczrvJ3hals7gCjA,One Fifth,Italian,"'1 5th Ave New York, NY 10003'",40.731958617147676,-73.99622414955519,30,4.5,2023-02-25 21:12:18.587842
NBeQAgTo9hlJxgp9xbMO-w,Tufino Pizzeria Napoletana,Italian,"'36-08 Ditmars Blvd Astoria, NY 11105'",40.773986,-73.908126,453,4.0,2023-02-25 21:12:18.587853
